{"type":"FeatureCollection","features":[{"type":"Feature","properties":{"ogc_fid":1,"objectid":1.0,"name":"Forcados","type":"Export Terminal","status":"Existing","company":null,"location":null,"design_cap":null,"operating":null,"date_of_co":null},"geometry":{"type":"Point","coordinates":[5.35034544,5.32380318]},"id":"gas_infrastructure.1"},{"type":"Feature","properties":{"ogc_fid":2,"objectid":2.0,"name":null,"type":"LNG Plant","status":null,"company":null,"location":null,"design_cap":null,"operating":null,"date_of_co":null},"geometry":{"type":"Point","coordinates":[4.48497937,6.33112106]},"id":"gas_infrastructure.2"},{"type":"Feature","properties":{"ogc_fid":3,"objectid":3.0,"name":"Akpo FPSO","type":"FPSO","status":null,"company":"Total","location":null,"design_cap":null,"operating":null,"date_of_co":null},"geometry":{"type":"Point","coordinates":[6.87626809,3.13345108]},"id":"gas_infrastructure.3"},{"type":"Feature","properties":{"ogc_fid":4,"objectid":4.0,"name":"Agbami FPSO","type":"FPSO","status":null,"company":"Chevron","location":"Agbami-Ekoli Field","design_cap":null,"operating":null,"date_of_co":null},"geometry":{"type":"Point","coordinates":[5.58375892,3.45669299]},"id":"gas_infrastructure.4"},{"type":"Feature","properties":{"ogc_fid":5,"objectid":5.0,"name":"SPDC","type":"Export Terminal","status":null,"company":null,"location":null,"design_cap":null,"operating":null,"date_of_co":null},"geometry":{"type":"Point","coordinates":[7.23763648,4.18488889]},"id":"gas_infrastructure.5"},{"type":"Feature","properties":{"ogc_fid":6,"objectid":6.0,"name":"NAOC","type":"Export Terminal","status":null,"company":null,"location":null,"design_cap":null,"operating":null,"date_of_co":null},"geometry":{"type":"Point","coordinates":[6.28486875,4.05526861]},"id":"gas_infrastructure.6"},{"type":"Feature","properties":{"ogc_fid":7,"objectid":7.0,"name":"Pennington","type":"Export Terminal","status":"Existing","company":"Chevron","location":"Pennington","design_cap":null,"operating":null,"date_of_co":null},"geometry":{"type":"Point","coordinates":[5.60406863,4.24499977]},"id":"gas_infrastructure.7"},{"type":"Feature","properties":{"ogc_fid":8,"objectid":8.0,"name":"SPDC","type":"Export Terminal","status":null,"company":null,"location":null,"design_cap":null,"operating":null,"date_of_co":null},"geometry":{"type":"Point","coordinates":[5.18435827,5.16548206]},"id":"gas_infrastructure.8"},{"type":"Feature","properties":{"ogc_fid":9,"objectid":9.0,"name":"MPNU","type":"Export Terminal","status":null,"company":null,"location":null,"design_cap":null,"operating":null,"date_of_co":null},"geometry":{"type":"Point","coordinates":[8.05680265,4.21867546]},"id":"gas_infrastructure.9"},{"type":"Feature","properties":{"ogc_fid":10,"objectid":10.0,"name":"CNL","type":"Export Terminal","status":null,"company":"Chevron","location":null,"design_cap":null,"operating":null,"date_of_co":null},"geometry":{"type":"Point","coordinates":[4.99393078,5.48838013]},"id":"gas_infrastructure.10"},{"type":"Feature","properties":{"ogc_fid":11,"objectid":11.0,"name":"EA FPSO","type":"FPSO","status":null,"company":"SNEPCO","location":"EA Field","design_cap":null,"operating":null,"date_of_co":null},"geometry":{"type":"Point","coordinates":[5.33381867,4.71827134]},"id":"gas_infrastructure.11"},{"type":"Feature","properties":{"ogc_fid":12,"objectid":12.0,"name":"Ukpokiti FPSO","type":"FPSO","status":"Operating","company":"Express","location":"Ukpokiti Field","design_cap":null,"operating":null,"date_of_co":null},"geometry":{"type":"Point","coordinates":[4.84339845,5.70733576]},"id":"gas_infrastructure.12"},{"type":"Feature","properties":{"ogc_fid":13,"objectid":13.0,"name":"Obe APSO","type":"FPSO","status":null,"company":"Cavendish","location":"Obe Field","design_cap":null,"operating":null,"date_of_co":null},"geometry":{"type":"Point","coordinates":[4.70388452,5.96952851]},"id":"gas_infrastructure.13"},{"type":"Feature","properties":{"ogc_fid":14,"objectid":14.0,"name":"Abo FPSO","type":"FPSO","status":null,"company":"NAE","location":null,"design_cap":null,"operating":null,"date_of_co":null},"geometry":{"type":"Point","coordinates":[4.46506077,5.68359907]},"id":"gas_infrastructure.14"},{"type":"Feature","properties":{"ogc_fid":15,"objectid":15.0,"name":"Erha FPSO","type":"FPSO","status":null,"company":"ESSO","location":"Erha Field","design_cap":null,"operating":null,"date_of_co":null},"geometry":{"type":"Point","coordinates":[4.32856287,5.34239061]},"id":"gas_infrastructure.15"},{"type":"Feature","properties":{"ogc_fid":16,"objectid":16.0,"name":null,"type":"Tanker Terminal","status":null,"company":null,"location":null,"design_cap":null,"operating":null,"date_of_co":null},"geometry":{"type":"Point","coordinates":[4.86417017,5.50706132]},"id":"gas_infrastructure.16"},{"type":"Feature","properties":{"ogc_fid":17,"objectid":17.0,"name":"Bonga FPSO","type":"FPSO","status":null,"company":"SNEPCO","location":"Bonga Field","design_cap":null,"operating":null,"date_of_co":null},"geometry":{"type":"Point","coordinates":[4.49948234,4.43135977]},"id":"gas_infrastructure.17"},{"type":"Feature","properties":{"ogc_fid":18,"objectid":18.0,"name":"Okoro-Setu FPSO","type":"FPSO","status":null,"company":"Bumi Armada Berhand","location":"Okoro-Setu Offshore","design_cap":null,"operating":null,"date_of_co":null},"geometry":{"type":"Point","coordinates":[7.85540684,4.41469676]},"id":"gas_infrastructure.18"},{"type":"Feature","properties":{"ogc_fid":19,"objectid":19.0,"name":"Okwori FPSO","type":"FPSO","status":"Operating","company":null,"location":"Okwori Field","design_cap":null,"operating":null,"date_of_co":null},"geometry":{"type":"Point","coordinates":[6.9809142,3.78771308]},"id":"gas_infrastructure.19"},{"type":"Feature","properties":{"ogc_fid":20,"objectid":20.0,"name":"Okono/Okpoho FPSO","type":"FPSO","status":null,"company":"AENR","location":"Okono","design_cap":null,"operating":null,"date_of_co":null},"geometry":{"type":"Point","coordinates":[7.27994694,3.97349433]},"id":"gas_infrastructure.20"},{"type":"Feature","properties":{"ogc_fid":21,"objectid":21.0,"name":"Yoho FPSO","type":"FPSO","status":null,"company":"Mobil","location":"Yoho Field","design_cap":null,"operating":null,"date_of_co":null},"geometry":{"type":"Point","coordinates":[7.52475379,4.01354942]},"id":"gas_infrastructure.21"},{"type":"Feature","properties":{"ogc_fid":22,"objectid":22.0,"name":"Odudu FSO","type":"FPSO","status":null,"company":null,"location":null,"design_cap":null,"operating":null,"date_of_co":null},"geometry":{"type":"Point","coordinates":[7.7810411,3.88256174]},"id":"gas_infrastructure.22"},{"type":"Feature","properties":{"ogc_fid":23,"objectid":23.0,"name":null,"type":"Tanker Terminal","status":null,"company":null,"location":null,"design_cap":null,"operating":null,"date_of_co":null},"geometry":{"type":"Point","coordinates":[8.0796496,3.78657211]},"id":"gas_infrastructure.23"},{"type":"Feature","properties":{"ogc_fid":24,"objectid":24.0,"name":null,"type":"Tanker Terminal","status":null,"company":null,"location":null,"design_cap":null,"operating":null,"date_of_co":null},"geometry":{"type":"Point","coordinates":[8.1241599,3.84442922]},"id":"gas_infrastructure.24"},{"type":"Feature","properties":{"ogc_fid":25,"objectid":25.0,"name":null,"type":"Tanker Terminal","status":null,"company":null,"location":null,"design_cap":null,"operating":null,"date_of_co":null},"geometry":{"type":"Point","coordinates":[8.45040528,4.13759413]},"id":"gas_infrastructure.25"},{"type":"Feature","properties":{"ogc_fid":26,"objectid":26.0,"name":"Antan FPSO","type":"FPSO","status":"Operating","company":"Addax","location":"Antan","design_cap":null,"operating":null,"date_of_co":null},"geometry":{"type":"Point","coordinates":[8.33187457,4.22420918]},"id":"gas_infrastructure.26"},{"type":"Feature","properties":{"ogc_fid":27,"objectid":27.0,"name":null,"type":"Tanker Terminal","status":null,"company":null,"location":null,"design_cap":null,"operating":null,"date_of_co":null},"geometry":{"type":"Point","coordinates":[8.56332836,4.25833022]},"id":"gas_infrastructure.27"},{"type":"Feature","properties":{"ogc_fid":28,"objectid":28.0,"name":null,"type":"Gas Gathering & Processing Plant","status":null,"company":null,"location":null,"design_cap":null,"operating":null,"date_of_co":null},"geometry":{"type":"Point","coordinates":[5.3500117,5.32741689]},"id":"gas_infrastructure.28"},{"type":"Feature","properties":{"ogc_fid":29,"objectid":29.0,"name":"Port-Harcourt Refinery","type":"Refinery","status":"Existing","company":null,"location":null,"design_cap":null,"operating":null,"date_of_co":null},"geometry":{"type":"Point","coordinates":[7.1064,4.7586]},"id":"gas_infrastructure.29"},{"type":"Feature","properties":{"ogc_fid":30,"objectid":30.0,"name":"Bonny LNG Plant","type":"LNG Plant","status":"Existing","company":null,"location":null,"design_cap":null,"operating":null,"date_of_co":null},"geometry":{"type":"Point","coordinates":[7.15600691,4.34196053]},"id":"gas_infrastructure.30"},{"type":"Feature","properties":{"ogc_fid":31,"objectid":31.0,"name":"Kaduna Refinery","type":"Refinery","status":"Existing","company":null,"location":null,"design_cap":null,"operating":null,"date_of_co":null},"geometry":{"type":"Point","coordinates":[7.51353582,10.39698668]},"id":"gas_infrastructure.31"},{"type":"Feature","properties":{"ogc_fid":32,"objectid":32.0,"name":"Amape","type":"Refinery","status":"Planned","company":null,"location":null,"design_cap":null,"operating":null,"date_of_co":null},"geometry":{"type":"Point","coordinates":[7.93789383,4.64994568]},"id":"gas_infrastructure.32"},{"type":"Feature","properties":{"ogc_fid":33,"objectid":33.0,"name":"Warri Refinery","type":"Refinery","status":"Existing","company":null,"location":null,"design_cap":null,"operating":null,"date_of_co":null},"geometry":{"type":"Point","coordinates":[5.74630727,5.58152132]},"id":"gas_infrastructure.33"},{"type":"Feature","properties":{"ogc_fid":34,"objectid":34.0,"name":"Bonny NLNG","type":"LNG Plant","status":null,"company":null,"location":null,"design_cap":null,"operating":null,"date_of_co":null},"geometry":{"type":"Point","coordinates":[7.15892168,4.34257592]},"id":"gas_infrastructure.34"},{"type":"Feature","properties":{"ogc_fid":35,"objectid":35.0,"name":"Utorogu","type":"Gas Plant","status":null,"company":null,"location":null,"design_cap":null,"operating":null,"date_of_co":null},"geometry":{"type":"Point","coordinates":[5.8627814,5.35253634]},"id":"gas_infrastructure.35"},{"type":"Feature","properties":{"ogc_fid":36,"objectid":36.0,"name":"Oben Node","type":"Node","status":null,"company":null,"location":null,"design_cap":null,"operating":null,"date_of_co":null},"geometry":{"type":"Point","coordinates":[5.69538143,5.92306993]},"id":"gas_infrastructure.36"},{"type":"Feature","properties":{"ogc_fid":37,"objectid":37.0,"name":"Unicem Cement","type":"Gas Plant","status":null,"company":null,"location":null,"design_cap":null,"operating":null,"date_of_co":null},"geometry":{"type":"Point","coordinates":[8.34162082,4.86355883]},"id":"gas_infrastructure.37"},{"type":"Feature","properties":{"ogc_fid":38,"objectid":38.0,"name":"Obite","type":"Gas Plant","status":null,"company":null,"location":null,"design_cap":null,"operating":null,"date_of_co":null},"geometry":{"type":"Point","coordinates":[6.69979542,5.25654048]},"id":"gas_infrastructure.38"},{"type":"Feature","properties":{"ogc_fid":39,"objectid":39.0,"name":"Escravos","type":"LNG Plant","status":null,"company":null,"location":null,"design_cap":null,"operating":null,"date_of_co":null},"geometry":{"type":"Point","coordinates":[5.15174457,5.51843969]},"id":"gas_infrastructure.39"},{"type":"Feature","properties":{"ogc_fid":40,"objectid":40.0,"name":"OK LNG","type":"LNG Plant","status":null,"company":null,"location":null,"design_cap":null,"operating":null,"date_of_co":null},"geometry":{"type":"Point","coordinates":[4.42171389,6.27354844]},"id":"gas_infrastructure.40"},{"type":"Feature","properties":{"ogc_fid":41,"objectid":41.0,"name":"ENCON Lagos Island","type":"Gas Plant","status":null,"company":null,"location":null,"design_cap":null,"operating":null,"date_of_co":null},"geometry":{"type":"Point","coordinates":[3.30966736,6.44454277]},"id":"gas_infrastructure.41"},{"type":"Feature","properties":{"ogc_fid":42,"objectid":42.0,"name":"Brass LNG","type":"LNG Plant","status":null,"company":null,"location":null,"design_cap":null,"operating":null,"date_of_co":null},"geometry":{"type":"Point","coordinates":[6.20504063,4.22777702]},"id":"gas_infrastructure.42"},{"type":"Feature","properties":{"ogc_fid":43,"objectid":43.0,"name":"Cheviron Platform","type":"Tanker Terminal","status":null,"company":null,"location":null,"design_cap":null,"operating":null,"date_of_co":null},"geometry":{"type":"Point","coordinates":[5.02238472,5.50060259]},"id":"gas_infrastructure.43"},{"type":"Feature","properties":{"ogc_fid":44,"objectid":44.0,"name":"Escravos Node","type":"Node","status":null,"company":null,"location":null,"design_cap":null,"operating":null,"date_of_co":null},"geometry":{"type":"Point","coordinates":[5.19943349,5.51941074]},"id":"gas_infrastructure.44"},{"type":"Feature","properties":{"ogc_fid":45,"objectid":45.0,"name":"Obigbo Node","type":"LNG Plant","status":null,"company":null,"location":null,"design_cap":null,"operating":null,"date_of_co":null},"geometry":{"type":"Point","coordinates":[7.12295282,4.82043686]},"id":"gas_infrastructure.45"},{"type":"Feature","properties":{"ogc_fid":46,"objectid":46.0,"name":"Shell Okoloma Gas Plant","type":"Gas Plant","status":null,"company":null,"location":null,"design_cap":null,"operating":null,"date_of_co":null},"geometry":{"type":"Point","coordinates":[7.26508503,4.75181978]},"id":"gas_infrastructure.46"},{"type":"Feature","properties":{"ogc_fid":47,"objectid":47.0,"name":"Ukanakafu Pigging Station","type":"LNG Plant","status":null,"company":null,"location":null,"design_cap":null,"operating":null,"date_of_co":null},"geometry":{"type":"Point","coordinates":[7.52280115,4.79888728]},"id":"gas_infrastructure.47"},{"type":"Feature","properties":{"ogc_fid":48,"objectid":48.0,"name":"Imo River","type":"LNG Plant","status":null,"company":null,"location":null,"design_cap":null,"operating":null,"date_of_co":null},"geometry":{"type":"Point","coordinates":[7.20902062,4.89032839]},"id":"gas_infrastructure.48"},{"type":"Feature","properties":{"ogc_fid":49,"objectid":49.0,"name":"Delta Steel","type":"Gas Plant","status":null,"company":null,"location":null,"design_cap":null,"operating":null,"date_of_co":null},"geometry":{"type":"Point","coordinates":[5.80302097,5.36450994]},"id":"gas_infrastructure.49"},{"type":"Feature","properties":{"ogc_fid":50,"objectid":50.0,"name":"Gbaran Ubie Gas Plant","type":"Gas Plant","status":null,"company":null,"location":null,"design_cap":null,"operating":null,"date_of_co":null},"geometry":{"type":"Point","coordinates":[6.44481404,5.01500967]},"id":"gas_infrastructure.50"},{"type":"Feature","properties":{"ogc_fid":51,"objectid":51.0,"name":"Obiafu","type":"Gas Plant","status":null,"company":null,"location":null,"design_cap":null,"operating":null,"date_of_co":null},"geometry":{"type":"Point","coordinates":[6.65268139,5.28961177]},"id":"gas_infrastructure.51"},{"type":"Feature","properties":{"ogc_fid":52,"objectid":52.0,"name":"Qua Iboe","type":"Gas Gathering & Processing Plant","status":null,"company":null,"location":null,"design_cap":null,"operating":null,"date_of_co":null},"geometry":{"type":"Point","coordinates":[8.00087741,4.48573621]},"id":"gas_infrastructure.52"},{"type":"Feature","properties":{"ogc_fid":53,"objectid":53.0,"name":"Ughelli East Gas plant","type":"Gas Plant","status":null,"company":null,"location":null,"design_cap":null,"operating":null,"date_of_co":null},"geometry":{"type":"Point","coordinates":[5.91664507,5.39216756]},"id":"gas_infrastructure.53"},{"type":"Feature","properties":{"ogc_fid":54,"objectid":54.0,"name":"Oben Gas Plant","type":"Gas Plant","status":null,"company":null,"location":null,"design_cap":null,"operating":null,"date_of_co":null},"geometry":{"type":"Point","coordinates":[5.84410931,5.95612414]},"id":"gas_infrastructure.54"},{"type":"Feature","properties":{"ogc_fid":55,"objectid":55.0,"name":"OK FTZ","type":"Free Trade Zone","status":"Under Construction","company":null,"location":"Ogun/Ondo","design_cap":null,"operating":null,"date_of_co":null},"geometry":{"type":"Point","coordinates":[4.47158167,6.35276083]},"id":"gas_infrastructure.55"},{"type":"Feature","properties":{"ogc_fid":56,"objectid":56.0,"name":"Lagos FTZ","type":"Free Trade Zone","status":"Under Construction","company":null,"location":"Lagos","design_cap":null,"operating":null,"date_of_co":null},"geometry":{"type":"Point","coordinates":[3.94415834,6.44432566]},"id":"gas_infrastructure.56"},{"type":"Feature","properties":{"ogc_fid":57,"objectid":57.0,"name":"EGP 3","type":"Gas Plant","status":"Ongoing Installation","company":"CHEVRON","location":"Escravos","design_cap":395.0,"operating":"375 - 380","date_of_co":"Apr-10"},"geometry":{"type":"Point","coordinates":[5.23340816,5.60370597]},"id":"gas_infrastructure.57"},{"type":"Feature","properties":{"ogc_fid":58,"objectid":58.0,"name":"Afiesere GC","type":"Compressor Station","status":"On stand by","company":"SPDC","location":"AFIESERE","design_cap":21.0,"operating":"8","date_of_co":"1997"},"geometry":{"type":"Point","coordinates":[5.97442239,5.53348072]},"id":"gas_infrastructure.58"},{"type":"Feature","properties":{"ogc_fid":59,"objectid":59.0,"name":"Agbada AGG","type":"AGG Plant","status":"Operational","company":"SPDC","location":"AGBADA","design_cap":58.0,"operating":"58","date_of_co":"2002"},"geometry":{"type":"Point","coordinates":[7.01788032,4.93192326]},"id":"gas_infrastructure.59"},{"type":"Feature","properties":{"ogc_fid":60,"objectid":60.0,"name":"Agbada_1 GC","type":"Compressor Station","status":"Operational","company":"SPDC","location":"AGBADA","design_cap":12.0,"operating":"12","date_of_co":"2002"},"geometry":{"type":"Point","coordinates":[6.9775478,4.93365111]},"id":"gas_infrastructure.60"},{"type":"Feature","properties":{"ogc_fid":61,"objectid":61.0,"name":"Alakiri NAG","type":"NAG Plant","status":"Operational","company":"SPDC","location":"ALAKIRI","design_cap":120.0,"operating":"120","date_of_co":"1987"},"geometry":{"type":"Point","coordinates":[7.06378652,4.65731932]},"id":"gas_infrastructure.61"},{"type":"Feature","properties":{"ogc_fid":62,"objectid":62.0,"name":"Awoba AGG","type":"AGG Plant","status":"down","company":"SPDC","location":"AWOBA","design_cap":50.0,"operating":"down","date_of_co":"2004"},"geometry":{"type":"Point","coordinates":[6.82949524,4.53791859]},"id":"gas_infrastructure.62"},{"type":"Feature","properties":{"ogc_fid":63,"objectid":63.0,"name":"Batan GC","type":"Compressor Station","status":"down","company":"SPDC","location":"BATAN","design_cap":10.0,"operating":"down","date_of_co":"2002"},"geometry":{"type":"Point","coordinates":[5.53832157,5.53386014]},"id":"gas_infrastructure.63"},{"type":"Feature","properties":{"ogc_fid":64,"objectid":64.0,"name":"Belema GC","type":"Compressor Station","status":"On stand by","company":"SPDC","location":"BELEMA","design_cap":12.0,"operating":"12","date_of_co":"2002"},"geometry":{"type":"Point","coordinates":[6.45830998,4.34751784]},"id":"gas_infrastructure.64"},{"type":"Feature","properties":{"ogc_fid":65,"objectid":65.0,"name":"Belema AGG","type":"AGG Plant","status":"On stand by","company":"SPDC","location":"AGG Plant","design_cap":55.0,"operating":"55","date_of_co":"2002"},"geometry":{"type":"Point","coordinates":[6.44878041,4.33345612]},"id":"gas_infrastructure.65"},{"type":"Feature","properties":{"ogc_fid":66,"objectid":66.0,"name":"Bonny NAG","type":"NAG Plant","status":"Operational","company":"SPDC","location":"Bonny","design_cap":450.0,"operating":"450","date_of_co":"2002"},"geometry":{"type":"Point","coordinates":[7.17143846,4.35081556]},"id":"gas_infrastructure.66"},{"type":"Feature","properties":{"ogc_fid":67,"objectid":67.0,"name":"Cawthorne Channel AGG","type":"AGG Plant","status":"Operational","company":"SPDC","location":"Cawthorne Channel","design_cap":150.0,"operating":"150","date_of_co":"2005"},"geometry":{"type":"Point","coordinates":[7.00142183,4.55973999]},"id":"gas_infrastructure.67"},{"type":"Feature","properties":{"ogc_fid":68,"objectid":68.0,"name":"EGWA_1 GC","type":"Compressor Station","status":"down","company":"SPDC","location":"EGWA","design_cap":10.0,"operating":"down","date_of_co":"2002"},"geometry":{"type":"Point","coordinates":[5.45474616,5.59945071]},"id":"gas_infrastructure.68"},{"type":"Feature","properties":{"ogc_fid":69,"objectid":69.0,"name":"EGWA_2 GC","type":"Compressor Station","status":"down","company":"SPDC","location":"EGWA","design_cap":10.0,"operating":"down","date_of_co":"2002"},"geometry":{"type":"Point","coordinates":[5.48940558,5.55761115]},"id":"gas_infrastructure.69"},{"type":"Feature","properties":{"ogc_fid":70,"objectid":70.0,"name":"Ekulama_1 GC","type":"Compressor Station","status":"On stand by","company":"SPDC","location":"EKULAMA","design_cap":12.0,"operating":"12","date_of_co":"2002"},"geometry":{"type":"Point","coordinates":[6.71200911,4.55919561]},"id":"gas_infrastructure.70"},{"type":"Feature","properties":{"ogc_fid":71,"objectid":71.0,"name":"Ekulama_2 GC","type":"Compressor Station","status":"On stand by","company":"SPDC","location":"EKULAMA","design_cap":12.0,"operating":"12","date_of_co":"2002"},"geometry":{"type":"Point","coordinates":[6.66386371,4.54793026]},"id":"gas_infrastructure.71"},{"type":"Feature","properties":{"ogc_fid":72,"objectid":72.0,"name":"Eriemu GC","type":"Compressor Station","status":"down","company":"SPDC","location":"ERIEMU","design_cap":10.0,"operating":"down","date_of_co":"2002"},"geometry":{"type":"Point","coordinates":[6.05808943,5.52053396]},"id":"gas_infrastructure.72"},{"type":"Feature","properties":{"ogc_fid":73,"objectid":73.0,"name":"Escravos Beach GC","type":"Compressor Station","status":"down","company":"SPDC","location":"ESCRAVOS","design_cap":18.0,"operating":"down","date_of_co":"NGC"},"geometry":{"type":"Point","coordinates":[5.19400288,5.53421832]},"id":"gas_infrastructure.73"},{"type":"Feature","properties":{"ogc_fid":74,"objectid":74.0,"name":"Imo River_3 GC","type":"Compressor Station","status":"Operational","company":"SPDC","location":"IMO RIVER","design_cap":12.0,"operating":"12","date_of_co":"2002"},"geometry":{"type":"Point","coordinates":[7.20263816,4.89921405]},"id":"gas_infrastructure.74"},{"type":"Feature","properties":{"ogc_fid":75,"objectid":75.0,"name":"Imo River AGG","type":"AGG Plant","status":"Operational","company":"SPDC","location":"IMO RIVER 1 ?","design_cap":65.0,"operating":"65","date_of_co":"2002"},"geometry":{"type":"Point","coordinates":[7.20820073,4.90211725]},"id":"gas_infrastructure.75"},{"type":"Feature","properties":{"ogc_fid":76,"objectid":76.0,"name":"Jones Creek GC","type":"Compressor Station","status":"down","company":"SPDC","location":"JONES CREEK","design_cap":18.0,"operating":"down","date_of_co":"NGC"},"geometry":{"type":"Point","coordinates":[5.37866749,5.68795659]},"id":"gas_infrastructure.76"},{"type":"Feature","properties":{"ogc_fid":77,"objectid":77.0,"name":"Kokori GC","type":"Compressor Station","status":"down","company":"SPDC","location":"KOKORI","design_cap":8.0,"operating":"down","date_of_co":"NGC"},"geometry":{"type":"Point","coordinates":[6.05804409,5.6221927]},"id":"gas_infrastructure.77"},{"type":"Feature","properties":{"ogc_fid":78,"objectid":78.0,"name":"Krakama GC","type":"AGG Plant","status":"On stand by","company":"SPDC","location":"KRAKAMA","design_cap":5.0,"operating":"down","date_of_co":"Not Commissioned"},"geometry":{"type":"Point","coordinates":[6.89952094,4.55275918]},"id":"gas_infrastructure.78"},{"type":"Feature","properties":{"ogc_fid":79,"objectid":79.0,"name":"Nembe Creek_1 GC","type":"Compressor Station","status":"On stand by","company":"SPDC","location":"NEMBE CREEK","design_cap":10.0,"operating":"4","date_of_co":"2001"},"geometry":{"type":"Point","coordinates":[6.32301649,4.43392172]},"id":"gas_infrastructure.79"},{"type":"Feature","properties":{"ogc_fid":80,"objectid":80.0,"name":"Nembe Creek _2 GC","type":"Compressor Station","status":"On stand by","company":"SPDC","location":"NEMBE CREEK","design_cap":10.0,"operating":"4","date_of_co":"2001"},"geometry":{"type":"Point","coordinates":[6.32405399,4.45319792]},"id":"gas_infrastructure.80"},{"type":"Feature","properties":{"ogc_fid":81,"objectid":81.0,"name":"Nembe Creek_3 GC","type":"Compressor Station","status":"On stand by","company":"SPDC","location":"NEMBE CREEK","design_cap":5.0,"operating":"4","date_of_co":"2001"},"geometry":{"type":"Point","coordinates":[6.28520067,4.45066924]},"id":"gas_infrastructure.81"},{"type":"Feature","properties":{"ogc_fid":82,"objectid":82.0,"name":"Nembe Creek_4 GC","type":"Compressor Station","status":"On stand by","company":"SPDC","location":"NEMBE CREEK","design_cap":5.0,"operating":"4","date_of_co":"2001"},"geometry":{"type":"Point","coordinates":[6.36236037,4.44151158]},"id":"gas_infrastructure.82"},{"type":"Feature","properties":{"ogc_fid":83,"objectid":83.0,"name":"Nkali GC","type":"Compressor Station","status":"Operational","company":"SPDC","location":"NKALI","design_cap":12.0,"operating":"12","date_of_co":"2003"},"geometry":{"type":"Point","coordinates":[7.11776448,4.98336677]},"id":"gas_infrastructure.83"},{"type":"Feature","properties":{"ogc_fid":84,"objectid":84.0,"name":"Oben NAG","type":"NAG Plant Oben","status":"Operational","company":"SPDC","location":"OBEN","design_cap":90.0,"operating":"90","date_of_co":"1982"},"geometry":{"type":"Point","coordinates":[5.86860895,6.01386963]},"id":"gas_infrastructure.84"},{"type":"Feature","properties":{"ogc_fid":85,"objectid":85.0,"name":"Oben GC","type":"Compressor Station","status":"On stand by","company":"SPDC","location":"OBEN","design_cap":16.0,"operating":"16","date_of_co":"NGC"},"geometry":{"type":"Point","coordinates":[5.86672865,6.01217284]},"id":"gas_infrastructure.85"},{"type":"Feature","properties":{"ogc_fid":86,"objectid":86.0,"name":"Odeama Creek GC","type":"Compressor Station","status":"Not Commissioned","company":"SPDC","location":"ODEAMA CREEK","design_cap":5.0,"operating":"down","date_of_co":"Not Commissioned"},"geometry":{"type":"Point","coordinates":[6.51938237,4.45680463]},"id":"gas_infrastructure.86"},{"type":"Feature","properties":{"ogc_fid":87,"objectid":87.0,"name":"Odidi AGG","type":"AGG Plant","status":"down","company":"SPDC","location":"ODIDI","design_cap":80.0,"operating":"down","date_of_co":"2001"},"geometry":{"type":"Point","coordinates":[5.469177,5.52401101]},"id":"gas_infrastructure.87"},{"type":"Feature","properties":{"ogc_fid":88,"objectid":88.0,"name":"Odidi GC","type":"Compressor Station","status":"down","company":"SPDC","location":"ODIDI","design_cap":18.0,"operating":"down","date_of_co":"NGC"},"geometry":{"type":"Point","coordinates":[5.469177,5.52401101]},"id":"gas_infrastructure.88"},{"type":"Feature","properties":{"ogc_fid":89,"objectid":89.0,"name":"Oguta GI","type":"Gas Injection Plant","status":"Operational","company":"SPDC","location":"OGUTA","design_cap":40.0,"operating":"13","date_of_co":"Recommissioned in 2004"},"geometry":{"type":"Point","coordinates":[6.71343549,5.66215173]},"id":"gas_infrastructure.89"},{"type":"Feature","properties":{"ogc_fid":90,"objectid":90.0,"name":"Okoloma NAG","type":"NAG Plant","status":"Operational","company":"SPDC","location":"OKOLAMA","design_cap":240.0,"operating":"240","date_of_co":"2008"},"geometry":{"type":"Point","coordinates":[7.26788644,4.7651533]},"id":"gas_infrastructure.90"},{"type":"Feature","properties":{"ogc_fid":91,"objectid":91.0,"name":"Olomoro Oleh GC","type":"Compressor Station","status":"down","company":"SPDC","location":"OLOMORO- OLEH","design_cap":3.3,"operating":"down","date_of_co":"NGC"},"geometry":{"type":"Point","coordinates":[6.17684672,5.46120672]},"id":"gas_infrastructure.91"},{"type":"Feature","properties":{"ogc_fid":92,"objectid":92.0,"name":"Oweh GC","type":"Compressor Station","status":"down","company":"SPDC","location":"OWEH","design_cap":5.5,"operating":"down","date_of_co":"NGC"},"geometry":{"type":"Point","coordinates":[6.13518888,5.48847378]},"id":"gas_infrastructure.92"},{"type":"Feature","properties":{"ogc_fid":93,"objectid":93.0,"name":"Santa Barbara GC","type":"Compressor Station","status":"On stand by","company":"SPDC","location":"SANTA BARBARA","design_cap":8.0,"operating":"8","date_of_co":"2001"},"geometry":{"type":"Point","coordinates":[6.5033945,4.53905874]},"id":"gas_infrastructure.93"},{"type":"Feature","properties":{"ogc_fid":94,"objectid":94.0,"name":"Sapele NAG","type":"NAG Plant","status":"Operational","company":"SPDC","location":"SAPELE","design_cap":120.0,"operating":"120","date_of_co":"1978"},"geometry":{"type":"Point","coordinates":[5.58452872,5.89783453]},"id":"gas_infrastructure.94"},{"type":"Feature","properties":{"ogc_fid":95,"objectid":95.0,"name":"Sapele GC","type":"Compressor Station","status":"On stand by","company":"SPDC","location":"SAPELE","design_cap":24.0,"operating":"24","date_of_co":"2003"},"geometry":{"type":"Point","coordinates":[5.58495317,5.90141363]},"id":"gas_infrastructure.95"},{"type":"Feature","properties":{"ogc_fid":96,"objectid":96.0,"name":"Soku GC","type":"Compressor Station","status":"On stand by","company":"SPDC","location":"SOKU","design_cap":5.0,"operating":"5","date_of_co":"2002"},"geometry":{"type":"Point","coordinates":[6.6332654,4.64985879]},"id":"gas_infrastructure.96"},{"type":"Feature","properties":{"ogc_fid":97,"objectid":97.0,"name":"Soku AG/NAG","type":"AG/NAG Plant","status":"Operational","company":"SPDC","location":"SOKU","design_cap":1100.0,"operating":"1100","date_of_co":"1999"},"geometry":{"type":"Point","coordinates":[6.61211426,4.65607956]},"id":"gas_infrastructure.97"},{"type":"Feature","properties":{"ogc_fid":98,"objectid":98.0,"name":"Ughelli East NAG","type":"NAG Plant","status":"Operational","company":"SPDC","location":"UGHELLI EAST","design_cap":150.0,"operating":"90","date_of_co":"1966"},"geometry":{"type":"Point","coordinates":[5.9232033,5.39227232]},"id":"gas_infrastructure.98"},{"type":"Feature","properties":{"ogc_fid":99,"objectid":99.0,"name":"Utorogu NAG","type":"NAG Plant","status":"Operational","company":"SPDC","location":"UTOROGU NAG Plant","design_cap":0.0,"operating":"Completeupgrade will increase design capacities from 300 to 360","date_of_co":"1988"},"geometry":{"type":"Point","coordinates":[5.86938935,5.3643748]},"id":"gas_infrastructure.99"},{"type":"Feature","properties":{"ogc_fid":100,"objectid":100.0,"name":"Utorogu GC","type":"Compressor Station","status":"Operational","company":"SPDC","location":"UTOROGU","design_cap":7.0,"operating":"7","date_of_co":"2004"},"geometry":{"type":"Point","coordinates":[5.88124599,5.36643684]},"id":"gas_infrastructure.100"},{"type":"Feature","properties":{"ogc_fid":101,"objectid":101.0,"name":"Uzere West GC","type":"Compressor Station","status":"Down","company":"SPDC","location":"UZERE WEST","design_cap":10.0,"operating":"Down","date_of_co":"NGC"},"geometry":{"type":"Point","coordinates":[6.23505222,5.28433722]},"id":"gas_infrastructure.101"},{"type":"Feature","properties":{"ogc_fid":102,"objectid":102.0,"name":"Akpo GI","type":"FPSO","status":"Operational","company":"Total Upstream","location":"OML 130","design_cap":530.0,"operating":"485 - 570","date_of_co":"3/1/2009"},"geometry":{"type":"Point","coordinates":[6.82206927,3.14082076]},"id":"gas_infrastructure.102"},{"type":"Feature","properties":{"ogc_fid":103,"objectid":103.0,"name":"Benisede GC","type":"Compressor Station","status":null,"company":"SHELL","location":"Benisede","design_cap":0.0,"operating":null,"date_of_co":null},"geometry":{"type":"Point","coordinates":[5.70022584,4.99973374]},"id":"gas_infrastructure.103"},{"type":"Feature","properties":{"ogc_fid":104,"objectid":104.0,"name":"Nun River GC","type":"Compressor Station","status":null,"company":"SHELL","location":"Nun River","design_cap":0.0,"operating":null,"date_of_co":null},"geometry":{"type":"Point","coordinates":[6.07209112,4.73174647]},"id":"gas_infrastructure.104"},{"type":"Feature","properties":{"ogc_fid":105,"objectid":105.0,"name":"Amenam Kpono AG","type":"AG Plant","status":"Operational","company":"TEPNG","location":null,"design_cap":0.0,"operating":null,"date_of_co":null},"geometry":{"type":"Point","coordinates":[7.50558368,4.05779286]},"id":"gas_infrastructure.105"},{"type":"Feature","properties":{"ogc_fid":106,"objectid":106.0,"name":"Izombe GI","type":"Gas Injection Plant","status":"Operational","company":"Addax","location":"Imo/Izombe","design_cap":0.0,"operating":null,"date_of_co":null},"geometry":{"type":"Point","coordinates":[6.82043551,5.52337165]},"id":"gas_infrastructure.106"},{"type":"Feature","properties":{"ogc_fid":107,"objectid":107.0,"name":"Obite AG","type":"AG Plant","status":"Operational","company":"TEPNG","location":"Obite-Obagi","design_cap":0.0,"operating":null,"date_of_co":null},"geometry":{"type":"Point","coordinates":[6.6088937,5.24214586]},"id":"gas_infrastructure.107"},{"type":"Feature","properties":{"ogc_fid":108,"objectid":108.0,"name":"Okpai Gas Plant","type":"Gas Plant","status":"Operational","company":"NAOC","location":"Kwale","design_cap":0.0,"operating":null,"date_of_co":null},"geometry":{"type":"Point","coordinates":[6.53227963,5.70218287]},"id":"gas_infrastructure.108"},{"type":"Feature","properties":{"ogc_fid":109,"objectid":109.0,"name":"Irri-Isoko CFS","type":"Condensate Flow Station","status":"Operational","company":"NAOC","location":"Isoko","design_cap":0.0,"operating":null,"date_of_co":null},"geometry":{"type":"Point","coordinates":[6.25834127,5.50573526]},"id":"gas_infrastructure.109"},{"type":"Feature","properties":{"ogc_fid":110,"objectid":110.0,"name":"Ogharefe","type":"Gas Plant","status":"Operational","company":"POOCN","location":"Ogharefe","design_cap":0.0,"operating":null,"date_of_co":null},"geometry":{"type":"Point","coordinates":[5.72425646,6.03402562]},"id":"gas_infrastructure.110"},{"type":"Feature","properties":{"ogc_fid":111,"objectid":111.0,"name":"Oso-RX","type":"Gas Compression Plant","status":"Operational","company":"MPNU","location":"Oso - Offshore","design_cap":0.0,"operating":null,"date_of_co":null},"geometry":{"type":"Point","coordinates":[7.64101409,4.24170054]},"id":"gas_infrastructure.111"},{"type":"Feature","properties":{"ogc_fid":112,"objectid":112.0,"name":"Evwreni GC","type":"Gas Compression Plant","status":null,"company":"SPDC","location":"Evwreni","design_cap":0.0,"operating":null,"date_of_co":null},"geometry":{"type":"Point","coordinates":[6.04780917,5.35627402]},"id":"gas_infrastructure.112"}]}