{
"type": "FeatureCollection",
"name": "hotosm_nga_health_facilities_points_geojson",
"features": [
{ "type": "Feature", "properties": { "name": "Health Center", "name:en": null, "amenity": "clinic", "building": null, "healthcare": null, "healthcare:speciality": null, "operator:type": null, "capacity:persons": null, "addr:full": null, "addr:city": null, "source": null, "osm_id": 5446406437, "osm_type": "nodes" }, "geometry": { "type": "Point", "coordinates": [ 5.7059258, 5.5921995 ] } },
{ "type": "Feature", "properties": { "name": null, "name:en": null, "amenity": "pharmacy", "building": null, "healthcare": null, "healthcare:speciality": null, "operator:type": null, "capacity:persons": null, "addr:full": null, "addr:city": null, "source": "nigeriase4all.gov.ng", "osm_id": 9894883458, "osm_type": "nodes" }, "geometry": { "type": "Point", "coordinates": [ 10.1587396, 10.9591867 ] } },
{ "type": "Feature", "properties": { "name": "Maria Fustina  Clinic", "name:en": null, "amenity": "clinic", "building": null, "healthcare": null, "healthcare:speciality": null, "operator:type": null, "capacity:persons": null, "addr:full": null, "addr:city": null, "source": null, "osm_id": 5446406440, "osm_type": "nodes" }, "geometry": { "type": "Point", "coordinates": [ 5.7081868, 5.5904794 ] } },
{ "type": "Feature", "properties": { "name": "Royal end pharmancy", "name:en": null, "amenity": "pharmacy", "building": null, "healthcare": "pharmacy", "healthcare:speciality": null, "operator:type": null, "capacity:persons": null, "addr:full": null, "addr:city": null, "source": null, "osm_id": 2161074868, "osm_type": "nodes" }, "geometry": { "type": "Point", "coordinates": [ 5.6303674, 6.3267503 ] } },
{ "type": "Feature", "properties": { "name": "PHC Ndon Utim", "name:en": null, "amenity": null, "building": null, "healthcare": "hospital", "healthcare:speciality": null, "operator:type": null, "capacity:persons": null, "addr:full": null, "addr:city": null, "source": null, "osm_id": 6478929277, "osm_type": "nodes" }, "geometry": { "type": "Point", "coordinates": [ 7.8244498, 4.8215283 ] } },
{ "type": "Feature", "properties": { "name": "Mingila Nursing Home", "name:en": null, "amenity": "hospital", "building": null, "healthcare": "hospital", "healthcare:speciality": null, "operator:type": "private", "capacity:persons": null, "addr:full": "Miya B, Ganjuwa, Bauchi", "addr:city": null, "source": "Bing;ehealthafrica.org", "osm_id": 7711172543, "osm_type": "nodes" }, "geometry": { "type": "Point", "coordinates": [ 9.8307656, 10.896732 ] } },
{ "type": "Feature", "properties": { "name": null, "name:en": null, "amenity": "hospital", "building": null, "healthcare": "hospital", "healthcare:speciality": null, "operator:type": null, "capacity:persons": null, "addr:full": null, "addr:city": null, "source": null, "osm_id": 7854757937, "osm_type": "nodes" }, "geometry": { "type": "Point", "coordinates": [ 10.3538865, 10.3538078 ] } },
{ "type": "Feature", "properties": { "name": "balaifi heath clinic", "name:en": null, "amenity": "hospital", "building": null, "healthcare": "hospital", "healthcare:speciality": null, "operator:type": null, "capacity:persons": null, "addr:full": null, "addr:city": null, "source": null, "osm_id": 7838124823, "osm_type": "nodes" }, "geometry": { "type": "Point", "coordinates": [ 11.4687704, 9.5032111 ] } },
{ "type": "Feature", "properties": { "name": "Sara's Hospital", "name:en": null, "amenity": "hospital", "building": null, "healthcare": "hospital", "healthcare:speciality": "general", "operator:type": "private", "capacity:persons": null, "addr:full": null, "addr:city": null, "source": null, "osm_id": 9614275498, "osm_type": "nodes" }, "geometry": { "type": "Point", "coordinates": [ 9.8988277, 11.6668344 ] } },
{ "type": "Feature", "properties": { "name": "Federal Teaching Hospital Mosque", "name:en": null, "amenity": "hospital", "building": null, "healthcare": null, "healthcare:speciality": null, "operator:type": null, "capacity:persons": null, "addr:full": null, "addr:city": null, "source": null, "osm_id": 11157838305, "osm_type": "nodes" }, "geometry": { "type": "Point", "coordinates": [ 11.1387383, 10.2968833 ] } },
{ "type": "Feature", "properties": { "name": "Metro hospital", "name:en": null, "amenity": "hospital", "building": null, "healthcare": null, "healthcare:speciality": null, "operator:type": null, "capacity:persons": null, "addr:full": null, "addr:city": null, "source": null, "osm_id": 7301661486, "osm_type": "nodes" }, "geometry": { "type": "Point", "coordinates": [ 11.1467868, 10.2987456 ] } },
{ "type": "Feature", "properties": { "name": "DOMA HOSPITAL GOMBE", "name:en": null, "amenity": "hospital", "building": null, "healthcare": null, "healthcare:speciality": null, "operator:type": null, "capacity:persons": null, "addr:full": null, "addr:city": null, "source": null, "osm_id": 7345602887, "osm_type": "nodes" }, "geometry": { "type": "Point", "coordinates": [ 11.1820574, 10.2882472 ] } },
{ "type": "Feature", "properties": { "name": "Guba Health Facility", "name:en": null, "amenity": "clinic", "building": null, "healthcare": null, "healthcare:speciality": null, "operator:type": null, "capacity:persons": null, "addr:full": null, "addr:city": null, "source": null, "osm_id": 4224123990, "osm_type": "nodes" }, "geometry": { "type": "Point", "coordinates": [ 11.4193985, 12.8071856 ] } },
{ "type": "Feature", "properties": { "name": "General Hospital Potiskum", "name:en": null, "amenity": "hospital", "building": null, "healthcare": null, "healthcare:speciality": null, "operator:type": null, "capacity:persons": null, "addr:full": null, "addr:city": null, "source": null, "osm_id": 7816233708, "osm_type": "nodes" }, "geometry": { "type": "Point", "coordinates": [ 10.9911346, 11.7216103 ] } },
{ "type": "Feature", "properties": { "name": null, "name:en": null, "amenity": "pharmacy", "building": null, "healthcare": null, "healthcare:speciality": null, "operator:type": null, "capacity:persons": null, "addr:full": null, "addr:city": null, "source": "nigeriase4all.gov.ng", "osm_id": 9897657331, "osm_type": "nodes" }, "geometry": { "type": "Point", "coordinates": [ 9.7183868, 11.9286685 ] } },
{ "type": "Feature", "properties": { "name": "Kawaji Health Post", "name:en": null, "amenity": "hospital", "building": null, "healthcare": null, "healthcare:speciality": null, "operator:type": null, "capacity:persons": null, "addr:full": "Badume, Bichi, Kano", "addr:city": null, "source": "ehealthafrica.org", "osm_id": 2929137248, "osm_type": "nodes" }, "geometry": { "type": "Point", "coordinates": [ 8.3329369, 12.2319051 ] } },
{ "type": "Feature", "properties": { "name": "Geneneral Hospital Tangaza", "name:en": null, "amenity": "hospital", "building": null, "healthcare": null, "healthcare:speciality": null, "operator:type": null, "capacity:persons": null, "addr:full": null, "addr:city": null, "source": "MSFsurvey", "osm_id": 7734858765, "osm_type": "nodes" }, "geometry": { "type": "Point", "coordinates": [ 4.9473613, 13.3647386 ] } },
{ "type": "Feature", "properties": { "name": "Sick Bay", "name:en": null, "amenity": "hospital", "building": null, "healthcare": null, "healthcare:speciality": null, "operator:type": null, "capacity:persons": null, "addr:full": null, "addr:city": null, "source": null, "osm_id": 4484741172, "osm_type": "nodes" }, "geometry": { "type": "Point", "coordinates": [ 7.6521307, 11.1545705 ] } },
{ "type": "Feature", "properties": { "name": "PHC Dumbegu", "name:en": null, "amenity": "doctors", "building": null, "healthcare": null, "healthcare:speciality": null, "operator:type": null, "capacity:persons": null, "addr:full": null, "addr:city": null, "source": "MSFsurvey", "osm_id": 7917401375, "osm_type": "nodes" }, "geometry": { "type": "Point", "coordinates": [ 4.3313143, 12.2901536 ] } },
{ "type": "Feature", "properties": { "name": "Kurfar Magaji Phc", "name:en": null, "amenity": "doctors", "building": null, "healthcare": null, "healthcare:speciality": null, "operator:type": null, "capacity:persons": null, "addr:full": null, "addr:city": null, "source": "MSFsurvey", "osm_id": 7824256199, "osm_type": "nodes" }, "geometry": { "type": "Point", "coordinates": [ 5.7351483, 12.2696553 ] } },
{ "type": "Feature", "properties": { "name": "Damisa Health Post", "name:en": null, "amenity": "hospital", "building": null, "healthcare": null, "healthcare:speciality": null, "operator:type": null, "capacity:persons": null, "addr:full": "Kau-Kau, Bichi, Kano", "addr:city": null, "source": "ehealthafrica.org", "osm_id": 2929399561, "osm_type": "nodes" }, "geometry": { "type": "Point", "coordinates": [ 8.2164745, 12.309377 ] } },
{ "type": "Feature", "properties": { "name": "Gawon Bature Health Post", "name:en": null, "amenity": "hospital", "building": null, "healthcare": null, "healthcare:speciality": null, "operator:type": null, "capacity:persons": null, "addr:full": "Saye, Bichi, Kano", "addr:city": null, "source": "ehealthafrica.org", "osm_id": 2929137244, "osm_type": "nodes" }, "geometry": { "type": "Point", "coordinates": [ 8.4188614, 12.2627379 ] } },
{ "type": "Feature", "properties": { "name": "Danzabua Primary Health Centre", "name:en": null, "amenity": "hospital", "building": null, "healthcare": null, "healthcare:speciality": null, "operator:type": null, "capacity:persons": null, "addr:full": "Danzabuwa, Bichi, Kano", "addr:city": null, "source": "ehealthafrica.org", "osm_id": 2929399562, "osm_type": "nodes" }, "geometry": { "type": "Point", "coordinates": [ 8.1102497, 12.3458238 ] } },
{ "type": "Feature", "properties": { "name": "Tinki Health Post", "name:en": null, "amenity": "hospital", "building": null, "healthcare": null, "healthcare:speciality": null, "operator:type": null, "capacity:persons": null, "addr:full": "Kwamarawa, Bichi, Kano", "addr:city": null, "source": "ehealthafrica.org", "osm_id": 2929137255, "osm_type": "nodes" }, "geometry": { "type": "Point", "coordinates": [ 8.3925522, 12.303154 ] } },
{ "type": "Feature", "properties": { "name": null, "name:en": null, "amenity": "pharmacy", "building": null, "healthcare": null, "healthcare:speciality": null, "operator:type": null, "capacity:persons": null, "addr:full": null, "addr:city": null, "source": null, "osm_id": 7131029452, "osm_type": "nodes" }, "geometry": { "type": "Point", "coordinates": [ 8.6300665, 12.3882668 ] } },
{ "type": "Feature", "properties": { "name": "Kwando Primary Health Centre", "name:en": null, "amenity": "hospital", "building": null, "healthcare": null, "healthcare:speciality": null, "operator:type": null, "capacity:persons": null, "addr:full": "Riruwai, Doguwa, Kano", "addr:city": null, "source": "ehealthafrica.org", "osm_id": 2923599553, "osm_type": "nodes" }, "geometry": { "type": "Point", "coordinates": [ 8.6826966, 10.7081211 ] } },
{ "type": "Feature", "properties": { "name": "Dariyar Shere Primary Health Centre", "name:en": null, "amenity": "hospital", "building": null, "healthcare": null, "healthcare:speciality": null, "operator:type": null, "capacity:persons": null, "addr:full": "Shere, Doguwa, Kano", "addr:city": null, "source": "ehealthafrica.org", "osm_id": 2923599549, "osm_type": "nodes" }, "geometry": { "type": "Point", "coordinates": [ 8.7410562, 10.6704612 ] } },
{ "type": "Feature", "properties": { "name": "Rufai Health Post", "name:en": null, "amenity": "hospital", "building": null, "healthcare": null, "healthcare:speciality": null, "operator:type": null, "capacity:persons": null, "addr:full": "Dadin Kowa, Doguwa, Kano", "addr:city": null, "source": "ehealthafrica.org", "osm_id": 2925837271, "osm_type": "nodes" }, "geometry": { "type": "Point", "coordinates": [ 8.6471287, 10.6387049 ] } },
{ "type": "Feature", "properties": { "name": "Maganda Health Post", "name:en": null, "amenity": "hospital", "building": null, "healthcare": null, "healthcare:speciality": null, "operator:type": null, "capacity:persons": null, "addr:full": "Shere, Doguwa, Kano", "addr:city": null, "source": "ehealthafrica.org", "osm_id": 2925837269, "osm_type": "nodes" }, "geometry": { "type": "Point", "coordinates": [ 8.7593621, 10.6404903 ] } },
{ "type": "Feature", "properties": { "name": "Daddo Health Post", "name:en": null, "amenity": "hospital", "building": null, "healthcare": null, "healthcare:speciality": null, "operator:type": null, "capacity:persons": null, "addr:full": "Yallami, Bichi, Kano", "addr:city": null, "source": "ehealthafrica.org", "osm_id": 2929137241, "osm_type": "nodes" }, "geometry": { "type": "Point", "coordinates": [ 8.3351345, 12.2998701 ] } },
{ "type": "Feature", "properties": { "name": "Mekwandira Health Post", "name:en": null, "amenity": "hospital", "building": null, "healthcare": null, "healthcare:speciality": null, "operator:type": null, "capacity:persons": null, "addr:full": "Tagwaye, Doguwa, Kano", "addr:city": null, "source": "ehealthafrica.org", "osm_id": 2923599554, "osm_type": "nodes" }, "geometry": { "type": "Point", "coordinates": [ 8.6301797, 10.8088385 ] } },
{ "type": "Feature", "properties": { "name": "Yalwan Dan Musa Health Post", "name:en": null, "amenity": "hospital", "building": null, "healthcare": null, "healthcare:speciality": null, "operator:type": null, "capacity:persons": null, "addr:full": "Maraku, Doguwa, Kano", "addr:city": null, "source": "ehealthafrica.org", "osm_id": 2925837272, "osm_type": "nodes" }, "geometry": { "type": "Point", "coordinates": [ 8.7159172, 10.5758648 ] } },
{ "type": "Feature", "properties": { "name": "Pills & potions pharmacy", "name:en": null, "amenity": "pharmacy", "building": null, "healthcare": null, "healthcare:speciality": null, "operator:type": null, "capacity:persons": null, "addr:full": null, "addr:city": "Jos", "source": null, "osm_id": 9771929420, "osm_type": "nodes" }, "geometry": { "type": "Point", "coordinates": [ 8.8918526, 9.9015176 ] } },
{ "type": "Feature", "properties": { "name": "Cass pharmacy", "name:en": null, "amenity": "pharmacy", "building": null, "healthcare": null, "healthcare:speciality": null, "operator:type": null, "capacity:persons": null, "addr:full": null, "addr:city": "Jos", "source": null, "osm_id": 9769288573, "osm_type": "nodes" }, "geometry": { "type": "Point", "coordinates": [ 8.8854002, 9.9197376 ] } },
{ "type": "Feature", "properties": { "name": "Kyenpia pharmacy", "name:en": null, "amenity": "pharmacy", "building": null, "healthcare": null, "healthcare:speciality": null, "operator:type": null, "capacity:persons": null, "addr:full": null, "addr:city": "Jos", "source": null, "osm_id": 9772014346, "osm_type": "nodes" }, "geometry": { "type": "Point", "coordinates": [ 8.8835737, 9.8966234 ] } },
{ "type": "Feature", "properties": { "name": "Plateau state specialist hospital", "name:en": null, "amenity": "hospital", "building": null, "healthcare": null, "healthcare:speciality": null, "operator:type": null, "capacity:persons": null, "addr:full": null, "addr:city": "Jos", "source": null, "osm_id": 9772009306, "osm_type": "nodes" }, "geometry": { "type": "Point", "coordinates": [ 8.8837477, 9.8964321 ] } },
{ "type": "Feature", "properties": { "name": "Daura Health Post", "name:en": null, "amenity": "hospital", "building": null, "healthcare": null, "healthcare:speciality": null, "operator:type": null, "capacity:persons": null, "addr:full": "Daura, Karaye, Kano", "addr:city": null, "source": "ehealthafrica.org", "osm_id": 2923573777, "osm_type": "nodes" }, "geometry": { "type": "Point", "coordinates": [ 7.9830086, 11.7256288 ] } },
{ "type": "Feature", "properties": { "name": "United healthcare international limited", "name:en": null, "amenity": null, "building": null, "healthcare": "yes", "healthcare:speciality": null, "operator:type": null, "capacity:persons": null, "addr:full": null, "addr:city": "Jos", "source": null, "osm_id": 9769108942, "osm_type": "nodes" }, "geometry": { "type": "Point", "coordinates": [ 8.8836422, 9.9266417 ] } },
{ "type": "Feature", "properties": { "name": "Jordan diabetes center", "name:en": null, "amenity": null, "building": null, "healthcare": "yes", "healthcare:speciality": null, "operator:type": null, "capacity:persons": null, "addr:full": null, "addr:city": null, "source": null, "osm_id": 9771965814, "osm_type": "nodes" }, "geometry": { "type": "Point", "coordinates": [ 8.8815358, 9.8975279 ] } },
{ "type": "Feature", "properties": { "name": "Arewa Hospital and Maternity Home", "name:en": null, "amenity": "doctors", "building": null, "healthcare": null, "healthcare:speciality": null, "operator:type": null, "capacity:persons": null, "addr:full": null, "addr:city": null, "source": "MSFsurvey", "osm_id": 7824161218, "osm_type": "nodes" }, "geometry": { "type": "Point", "coordinates": [ 6.665905, 12.1718898 ] } },
{ "type": "Feature", "properties": { "name": "Ribe Primary Health Center", "name:en": null, "amenity": "doctors", "building": null, "healthcare": null, "healthcare:speciality": null, "operator:type": null, "capacity:persons": null, "addr:full": null, "addr:city": null, "source": "MSFsurvey", "osm_id": 7824213655, "osm_type": "nodes" }, "geometry": { "type": "Point", "coordinates": [ 6.7725845, 12.1739454 ] } },
{ "type": "Feature", "properties": { "name": "Al- Salam Hospital", "name:en": null, "amenity": "doctors", "building": null, "healthcare": null, "healthcare:speciality": null, "operator:type": null, "capacity:persons": null, "addr:full": null, "addr:city": null, "source": "MSFsurvey", "osm_id": 7824073910, "osm_type": "nodes" }, "geometry": { "type": "Point", "coordinates": [ 6.668901, 12.1576813 ] } },
{ "type": "Feature", "properties": { "name": "La Med Pharmacy", "name:en": null, "amenity": "pharmacy", "building": null, "healthcare": "pharmacy", "healthcare:speciality": null, "operator:type": null, "capacity:persons": null, "addr:full": null, "addr:city": "Jos", "source": null, "osm_id": 9769822675, "osm_type": "nodes" }, "geometry": { "type": "Point", "coordinates": [ 8.8675143, 9.9403696 ] } },
{ "type": "Feature", "properties": { "name": null, "name:en": null, "amenity": "pharmacy", "building": null, "healthcare": null, "healthcare:speciality": null, "operator:type": null, "capacity:persons": null, "addr:full": null, "addr:city": null, "source": null, "osm_id": 7133011979, "osm_type": "nodes" }, "geometry": { "type": "Point", "coordinates": [ 8.8070554, 11.2009995 ] } },
{ "type": "Feature", "properties": { "name": "Lafiya clinic and maternity", "name:en": null, "amenity": "clinic", "building": null, "healthcare": null, "healthcare:speciality": null, "operator:type": null, "capacity:persons": null, "addr:full": null, "addr:city": "Jos", "source": null, "osm_id": 9769971316, "osm_type": "nodes" }, "geometry": { "type": "Point", "coordinates": [ 8.8951052, 9.9079922 ] } },
{ "type": "Feature", "properties": { "name": "Nigerian police clinic", "name:en": null, "amenity": "clinic", "building": null, "healthcare": "clinic", "healthcare:speciality": null, "operator:type": null, "capacity:persons": null, "addr:full": null, "addr:city": "Jos", "source": null, "osm_id": 9772753866, "osm_type": "nodes" }, "geometry": { "type": "Point", "coordinates": [ 8.8808711, 9.9180143 ] } },
{ "type": "Feature", "properties": { "name": null, "name:en": null, "amenity": "pharmacy", "building": null, "healthcare": null, "healthcare:speciality": null, "operator:type": null, "capacity:persons": null, "addr:full": null, "addr:city": null, "source": "nigeriase4all.gov.ng", "osm_id": 9902292475, "osm_type": "nodes" }, "geometry": { "type": "Point", "coordinates": [ 8.7907752, 11.3593656 ] } },
{ "type": "Feature", "properties": { "name": "Ramadan Pharmacy", "name:en": null, "amenity": "pharmacy", "building": null, "healthcare": "hospital", "healthcare:speciality": null, "operator:type": null, "capacity:persons": null, "addr:full": null, "addr:city": "Jos", "source": null, "osm_id": 10840374704, "osm_type": "nodes" }, "geometry": { "type": "Point", "coordinates": [ 8.8987843, 9.9291794 ] } },
{ "type": "Feature", "properties": { "name": "La tahzan clinic and maternity", "name:en": null, "amenity": "clinic", "building": null, "healthcare": null, "healthcare:speciality": null, "operator:type": null, "capacity:persons": null, "addr:full": null, "addr:city": "Jos", "source": null, "osm_id": 9771435181, "osm_type": "nodes" }, "geometry": { "type": "Point", "coordinates": [ 8.897639, 9.9240448 ] } },
{ "type": "Feature", "properties": { "name": "Solace Women Hospital", "name:en": null, "amenity": "hospital", "building": null, "healthcare": "hospital", "healthcare:speciality": "paediatrics;gynaecology", "operator:type": null, "capacity:persons": null, "addr:full": null, "addr:city": "Jos", "source": null, "osm_id": 9771971077, "osm_type": "nodes" }, "geometry": { "type": "Point", "coordinates": [ 8.9135476, 9.9248502 ] } },
{ "type": "Feature", "properties": { "name": "Primary Health Care Center", "name:en": null, "amenity": "hospital", "building": null, "healthcare": "hospital", "healthcare:speciality": null, "operator:type": null, "capacity:persons": null, "addr:full": null, "addr:city": "Jos", "source": null, "osm_id": 9769753200, "osm_type": "nodes" }, "geometry": { "type": "Point", "coordinates": [ 8.9147451, 9.9360946 ] } },
{ "type": "Feature", "properties": { "name": null, "name:en": null, "amenity": "pharmacy", "building": null, "healthcare": null, "healthcare:speciality": null, "operator:type": null, "capacity:persons": null, "addr:full": null, "addr:city": null, "source": null, "osm_id": 1611132419, "osm_type": "nodes" }, "geometry": { "type": "Point", "coordinates": [ 7.5750975, 9.0108859 ] } },
{ "type": "Feature", "properties": { "name": "Sabon Fegi Health Post", "name:en": null, "amenity": "hospital", "building": null, "healthcare": null, "healthcare:speciality": null, "operator:type": null, "capacity:persons": null, "addr:full": "Yammedi, Karaye, Kano", "addr:city": null, "source": "ehealthafrica.org", "osm_id": 2923573785, "osm_type": "nodes" }, "geometry": { "type": "Point", "coordinates": [ 8.0639555, 11.806303 ] } },
{ "type": "Feature", "properties": { "name": "Wcwc", "name:en": null, "amenity": "doctors", "building": null, "healthcare": "doctor", "healthcare:speciality": null, "operator:type": null, "capacity:persons": null, "addr:full": null, "addr:city": null, "source": "MSFsurvey", "osm_id": 7939106722, "osm_type": "nodes" }, "geometry": { "type": "Point", "coordinates": [ 5.9238494, 12.1107316 ] } },
{ "type": "Feature", "properties": { "name": null, "name:en": null, "amenity": "hospital", "building": null, "healthcare": "hospital", "healthcare:speciality": null, "operator:type": null, "capacity:persons": null, "addr:full": null, "addr:city": null, "source": null, "osm_id": 7932915880, "osm_type": "nodes" }, "geometry": { "type": "Point", "coordinates": [ 9.4900877, 9.4951881 ] } },
{ "type": "Feature", "properties": { "name": null, "name:en": null, "amenity": "pharmacy", "building": null, "healthcare": null, "healthcare:speciality": null, "operator:type": null, "capacity:persons": null, "addr:full": null, "addr:city": null, "source": "nigeriase4all.gov.ng", "osm_id": 9911459176, "osm_type": "nodes" }, "geometry": { "type": "Point", "coordinates": [ 9.2192008, 6.3058657 ] } },
{ "type": "Feature", "properties": { "name": "Dugabau Primary Health Centre", "name:en": null, "amenity": "hospital", "building": null, "healthcare": null, "healthcare:speciality": null, "operator:type": null, "capacity:persons": null, "addr:full": "Dugabau, Kabo, Kano", "addr:city": null, "source": "ehealthafrica.org", "osm_id": 2925699887, "osm_type": "nodes" }, "geometry": { "type": "Point", "coordinates": [ 8.2070991, 11.8027135 ] } },
{ "type": "Feature", "properties": { "name": "Dalal Health Post", "name:en": null, "amenity": "hospital", "building": null, "healthcare": null, "healthcare:speciality": null, "operator:type": null, "capacity:persons": null, "addr:full": "Kara, Gwarzo, Kano", "addr:city": null, "source": "ehealthafrica.org", "osm_id": 2923573774, "osm_type": "nodes" }, "geometry": { "type": "Point", "coordinates": [ 7.9491289, 11.8351422 ] } },
{ "type": "Feature", "properties": { "name": null, "name:en": null, "amenity": "hospital", "building": null, "healthcare": "hospital", "healthcare:speciality": null, "operator:type": null, "capacity:persons": null, "addr:full": null, "addr:city": null, "source": null, "osm_id": 7434570801, "osm_type": "nodes" }, "geometry": { "type": "Point", "coordinates": [ 10.3334945, 13.0967001 ] } },
{ "type": "Feature", "properties": { "name": "HOD office", "name:en": null, "amenity": "clinic", "building": null, "healthcare": null, "healthcare:speciality": null, "operator:type": null, "capacity:persons": null, "addr:full": null, "addr:city": null, "source": null, "osm_id": 11047935905, "osm_type": "nodes" }, "geometry": { "type": "Point", "coordinates": [ 11.1754877, 10.306073 ] } },
{ "type": "Feature", "properties": { "name": "Excellent Medical & Diagnostic Laboratory", "name:en": null, "amenity": null, "building": null, "healthcare": "laboratory", "healthcare:speciality": "general", "operator:type": null, "capacity:persons": null, "addr:full": null, "addr:city": "Jos", "source": null, "osm_id": 9774435157, "osm_type": "nodes" }, "geometry": { "type": "Point", "coordinates": [ 8.8758246, 9.9200228 ] } },
{ "type": "Feature", "properties": { "name": "Check-Up Diagnostic", "name:en": null, "amenity": null, "building": null, "healthcare": "laboratory", "healthcare:speciality": "general", "operator:type": null, "capacity:persons": null, "addr:full": null, "addr:city": "Jos", "source": null, "osm_id": 9772418420, "osm_type": "nodes" }, "geometry": { "type": "Point", "coordinates": [ 8.8660733, 9.93951 ] } },
{ "type": "Feature", "properties": { "name": null, "name:en": null, "amenity": null, "building": null, "healthcare": "clinic", "healthcare:speciality": null, "operator:type": null, "capacity:persons": null, "addr:full": null, "addr:city": null, "source": "nigeriase4all.gov.ng", "osm_id": 10208380066, "osm_type": "nodes" }, "geometry": { "type": "Point", "coordinates": [ 8.0723483, 11.5379467 ] } },
{ "type": "Feature", "properties": { "name": "General Hospital Gakaru", "name:en": null, "amenity": null, "building": null, "healthcare": "hospital", "healthcare:speciality": null, "operator:type": null, "capacity:persons": null, "addr:full": null, "addr:city": null, "source": null, "osm_id": 6474775908, "osm_type": "nodes" }, "geometry": { "type": "Point", "coordinates": [ 8.1213505, 8.8462295 ] } },
{ "type": "Feature", "properties": { "name": "Flourish health medical diagnostic services", "name:en": null, "amenity": null, "building": null, "healthcare": "laboratory", "healthcare:speciality": "general", "operator:type": null, "capacity:persons": null, "addr:full": null, "addr:city": "Jos", "source": null, "osm_id": 9772385632, "osm_type": "nodes" }, "geometry": { "type": "Point", "coordinates": [ 8.8799983, 9.932475 ] } },
{ "type": "Feature", "properties": { "name": "GSU old Clinic", "name:en": null, "amenity": "clinic", "building": null, "healthcare": "clinic", "healthcare:speciality": null, "operator:type": null, "capacity:persons": null, "addr:full": null, "addr:city": null, "source": null, "osm_id": 7256317106, "osm_type": "nodes" }, "geometry": { "type": "Point", "coordinates": [ 11.1746659, 10.3067676 ] } },
{ "type": "Feature", "properties": { "name": "Mallan Inna Maternity", "name:en": null, "amenity": "clinic", "building": null, "healthcare": null, "healthcare:speciality": null, "operator:type": null, "capacity:persons": null, "addr:full": null, "addr:city": null, "source": null, "osm_id": 7255201885, "osm_type": "nodes" }, "geometry": { "type": "Point", "coordinates": [ 11.1772015, 10.3096395 ] } },
{ "type": "Feature", "properties": { "name": "Yelwa Domiciliary", "name:en": null, "amenity": "hospital", "building": null, "healthcare": "hospital", "healthcare:speciality": null, "operator:type": "government", "capacity:persons": null, "addr:full": null, "addr:city": null, "source": "local knowledge", "osm_id": 11010997280, "osm_type": "nodes" }, "geometry": { "type": "Point", "coordinates": [ 9.799994, 10.2816162 ] } },
{ "type": "Feature", "properties": { "name": "Kadafa Health Post", "name:en": null, "amenity": "hospital", "building": null, "healthcare": null, "healthcare:speciality": null, "operator:type": null, "capacity:persons": null, "addr:full": "Kwanyawa, Karaye, Kano", "addr:city": null, "source": "ehealthafrica.org", "osm_id": 2923573780, "osm_type": "nodes" }, "geometry": { "type": "Point", "coordinates": [ 7.941187, 11.7988485 ] } },
{ "type": "Feature", "properties": { "name": "Central Hospital Warri", "name:en": null, "amenity": "hospital", "building": null, "healthcare": "hospital", "healthcare:speciality": null, "operator:type": "government", "capacity:persons": null, "addr:full": null, "addr:city": "Warri", "source": null, "osm_id": 10712794134, "osm_type": "nodes" }, "geometry": { "type": "Point", "coordinates": [ 5.7343854, 5.5179335 ] } },
{ "type": "Feature", "properties": { "name": null, "name:en": null, "amenity": "hospital", "building": null, "healthcare": null, "healthcare:speciality": null, "operator:type": null, "capacity:persons": null, "addr:full": null, "addr:city": null, "source": null, "osm_id": 2749749839, "osm_type": "nodes" }, "geometry": { "type": "Point", "coordinates": [ 7.9, 11.816667 ] } },
{ "type": "Feature", "properties": { "name": "Abacheke Model Primary Health Care Centre", "name:en": null, "amenity": "clinic", "building": null, "healthcare": "clinic", "healthcare:speciality": null, "operator:type": "government", "capacity:persons": null, "addr:full": null, "addr:city": null, "source": "Nigerian Red Cross Society", "osm_id": 9497863512, "osm_type": "nodes" }, "geometry": { "type": "Point", "coordinates": [ 6.7262691, 5.4977205 ] } },
{ "type": "Feature", "properties": { "name": null, "name:en": null, "amenity": "pharmacy", "building": null, "healthcare": "pharmacy", "healthcare:speciality": null, "operator:type": null, "capacity:persons": null, "addr:full": null, "addr:city": null, "source": null, "osm_id": 2075846467, "osm_type": "nodes" }, "geometry": { "type": "Point", "coordinates": [ 5.6256537, 6.3043868 ] } },
{ "type": "Feature", "properties": { "name": "Spring Oak Pharmacy", "name:en": null, "amenity": "pharmacy", "building": null, "healthcare": null, "healthcare:speciality": null, "operator:type": null, "capacity:persons": null, "addr:full": null, "addr:city": null, "source": null, "osm_id": 2161097166, "osm_type": "nodes" }, "geometry": { "type": "Point", "coordinates": [ 5.5983393, 6.3117789 ] } },
{ "type": "Feature", "properties": { "name": null, "name:en": null, "amenity": "pharmacy", "building": null, "healthcare": null, "healthcare:speciality": null, "operator:type": null, "capacity:persons": null, "addr:full": null, "addr:city": null, "source": "nigeriase4all.gov.ng", "osm_id": 9897855890, "osm_type": "nodes" }, "geometry": { "type": "Point", "coordinates": [ 5.0160156, 7.006947 ] } },
{ "type": "Feature", "properties": { "name": "faith clinic lafiya", "name:en": null, "amenity": "hospital", "building": null, "healthcare": "hospital", "healthcare:speciality": null, "operator:type": null, "capacity:persons": null, "addr:full": null, "addr:city": null, "source": null, "osm_id": 7836915469, "osm_type": "nodes" }, "geometry": { "type": "Point", "coordinates": [ 11.8104031, 9.6509608 ] } },
{ "type": "Feature", "properties": { "name": "NGbobenge heath post", "name:en": null, "amenity": "hospital", "building": null, "healthcare": "hospital", "healthcare:speciality": null, "operator:type": null, "capacity:persons": null, "addr:full": null, "addr:city": null, "source": null, "osm_id": 7837004300, "osm_type": "nodes" }, "geometry": { "type": "Point", "coordinates": [ 11.8206306, 9.6589694 ] } },
{ "type": "Feature", "properties": { "name": "Tashan Gurgu Health Post", "name:en": null, "amenity": "hospital", "building": null, "healthcare": "hospital", "healthcare:speciality": null, "operator:type": null, "capacity:persons": null, "addr:full": null, "addr:city": null, "source": null, "osm_id": 7834483548, "osm_type": "nodes" }, "geometry": { "type": "Point", "coordinates": [ 11.8628487, 9.3382823 ] } },
{ "type": "Feature", "properties": { "name": "Laro Dispensary", "name:en": null, "amenity": "doctors", "building": null, "healthcare": null, "healthcare:speciality": null, "operator:type": "public", "capacity:persons": null, "addr:full": "Laro, Wuyo, Bayo, BO", "addr:city": null, "source": "ehealthafrica.org", "osm_id": 3459909009, "osm_type": "nodes" }, "geometry": { "type": "Point", "coordinates": [ 11.8032837, 10.3341064 ] } },
{ "type": "Feature", "properties": { "name": "Zoology Labortory", "name:en": null, "amenity": null, "building": null, "healthcare": "laboratory", "healthcare:speciality": null, "operator:type": null, "capacity:persons": null, "addr:full": null, "addr:city": null, "source": null, "osm_id": 7252799891, "osm_type": "nodes" }, "geometry": { "type": "Point", "coordinates": [ 11.1732555, 10.3071805 ] } },
{ "type": "Feature", "properties": { "name": "Health Clinic", "name:en": null, "amenity": "health_post", "building": null, "healthcare": "health_post", "healthcare:speciality": null, "operator:type": null, "capacity:persons": null, "addr:full": null, "addr:city": null, "source": "MSFsurvey", "osm_id": 8047677241, "osm_type": "nodes" }, "geometry": { "type": "Point", "coordinates": [ 6.8170407, 9.4213947 ] } },
{ "type": "Feature", "properties": { "name": "BHC", "name:en": null, "amenity": "health_post", "building": null, "healthcare": "health_post", "healthcare:speciality": null, "operator:type": null, "capacity:persons": null, "addr:full": null, "addr:city": null, "source": "MSFsurvey", "osm_id": 8047670198, "osm_type": "nodes" }, "geometry": { "type": "Point", "coordinates": [ 5.9598981, 9.2165008 ] } },
{ "type": "Feature", "properties": { "name": "Bulkutu Dispensary", "name:en": null, "amenity": null, "building": null, "healthcare": "primary", "healthcare:speciality": null, "operator:type": null, "capacity:persons": null, "addr:full": null, "addr:city": null, "source": null, "osm_id": 7880220914, "osm_type": "nodes" }, "geometry": { "type": "Point", "coordinates": [ 11.5683013, 9.5112911 ] } },
{ "type": "Feature", "properties": { "name": "Chekele Dispensary", "name:en": null, "amenity": "doctors", "building": null, "healthcare": null, "healthcare:speciality": null, "operator:type": "public", "capacity:persons": null, "addr:full": "Chekele, Briyel, Bayo, BO", "addr:city": null, "source": "ehealthafrica.org", "osm_id": 3459908994, "osm_type": "nodes" }, "geometry": { "type": "Point", "coordinates": [ 11.6391422, 10.3802838 ] } },
{ "type": "Feature", "properties": { "name": "Gaidam Dispensary", "name:en": null, "amenity": "doctors", "building": null, "healthcare": null, "healthcare:speciality": null, "operator:type": "public", "capacity:persons": null, "addr:full": "Gaidam, Wuyo, Bayo, BO", "addr:city": null, "source": "ehealthafrica.org", "osm_id": 3459908999, "osm_type": "nodes" }, "geometry": { "type": "Point", "coordinates": [ 11.752845, 10.4503325 ] } },
{ "type": "Feature", "properties": { "name": "Dambitam Dispensary", "name:en": null, "amenity": "doctors", "building": null, "healthcare": null, "healthcare:speciality": null, "operator:type": "public", "capacity:persons": null, "addr:full": "Dambitam, Wuyo, Bayo, BO", "addr:city": null, "source": "ehealthafrica.org", "osm_id": 3459908997, "osm_type": "nodes" }, "geometry": { "type": "Point", "coordinates": [ 11.7486618, 10.4467804 ] } },
{ "type": "Feature", "properties": { "name": "Turban Gida Health Facility", "name:en": null, "amenity": "clinic", "building": null, "healthcare": null, "healthcare:speciality": null, "operator:type": null, "capacity:persons": null, "addr:full": null, "addr:city": null, "source": null, "osm_id": 4224121390, "osm_type": "nodes" }, "geometry": { "type": "Point", "coordinates": [ 11.6784871, 12.4677089 ] } },
{ "type": "Feature", "properties": { "name": "Turban Gida Health Facility", "name:en": null, "amenity": "clinic", "building": null, "healthcare": null, "healthcare:speciality": null, "operator:type": null, "capacity:persons": null, "addr:full": null, "addr:city": null, "source": null, "osm_id": 4305116090, "osm_type": "nodes" }, "geometry": { "type": "Point", "coordinates": [ 11.6740653, 12.5076313 ] } },
{ "type": "Feature", "properties": { "name": "Damaya Health Facility", "name:en": null, "amenity": "clinic", "building": null, "healthcare": null, "healthcare:speciality": null, "operator:type": null, "capacity:persons": null, "addr:full": null, "addr:city": null, "source": null, "osm_id": 4224097300, "osm_type": "nodes" }, "geometry": { "type": "Point", "coordinates": [ 11.5591736, 12.8278325 ] } },
{ "type": "Feature", "properties": { "name": "Bularaba HEALTH CURE", "name:en": null, "amenity": "hospital", "building": null, "healthcare": null, "healthcare:speciality": null, "operator:type": null, "capacity:persons": null, "addr:full": null, "addr:city": null, "source": null, "osm_id": 6513497987, "osm_type": "nodes" }, "geometry": { "type": "Point", "coordinates": [ 11.7942215, 11.0695449 ] } },
{ "type": "Feature", "properties": { "name": "Gwei heath post", "name:en": null, "amenity": "hospital", "building": null, "healthcare": "hospital", "healthcare:speciality": null, "operator:type": null, "capacity:persons": null, "addr:full": null, "addr:city": null, "source": null, "osm_id": 7838153535, "osm_type": "nodes" }, "geometry": { "type": "Point", "coordinates": [ 11.6322464, 9.537418 ] } },
{ "type": "Feature", "properties": { "name": "Briyel Fsp Clinic", "name:en": null, "amenity": "doctors", "building": null, "healthcare": null, "healthcare:speciality": null, "operator:type": "public", "capacity:persons": null, "addr:full": "Briyel, Briyel, Bayo, BO", "addr:city": null, "source": "ehealthafrica.org", "osm_id": 3459908993, "osm_type": "nodes" }, "geometry": { "type": "Point", "coordinates": [ 11.6098917, 10.346958 ] } },
{ "type": "Feature", "properties": { "name": "Government Chest Hospital,Jericho", "name:en": null, "amenity": "hospital", "building": null, "healthcare": "hospital", "healthcare:speciality": null, "operator:type": null, "capacity:persons": null, "addr:full": null, "addr:city": "Ibadan", "source": null, "osm_id": 3084963901, "osm_type": "nodes" }, "geometry": { "type": "Point", "coordinates": [ 3.8720569, 7.3942642 ] } },
{ "type": "Feature", "properties": { "name": "Immaculate Maternity", "name:en": null, "amenity": "hospital", "building": null, "healthcare": "hospital", "healthcare:speciality": null, "operator:type": null, "capacity:persons": null, "addr:full": null, "addr:city": null, "source": null, "osm_id": 3085001502, "osm_type": "nodes" }, "geometry": { "type": "Point", "coordinates": [ 3.8976158, 7.3765179 ] } },
{ "type": "Feature", "properties": { "name": "Mazan Gudu Health Post", "name:en": null, "amenity": "hospital", "building": null, "healthcare": null, "healthcare:speciality": null, "operator:type": null, "capacity:persons": null, "addr:full": "Mekiya, Gabasawa, Kano", "addr:city": null, "source": "ehealthafrica.org", "osm_id": 2954277529, "osm_type": "nodes" }, "geometry": { "type": "Point", "coordinates": [ 8.9072145, 12.1953802 ] } },
{ "type": "Feature", "properties": { "name": "Osimike Health Service", "name:en": null, "amenity": "hospital", "building": null, "healthcare": null, "healthcare:speciality": null, "operator:type": null, "capacity:persons": null, "addr:full": null, "addr:city": null, "source": null, "osm_id": 2072621416, "osm_type": "nodes" }, "geometry": { "type": "Point", "coordinates": [ 5.6351859, 6.3775431 ] } },
{ "type": "Feature", "properties": { "name": "Okungbowa Medical Store", "name:en": null, "amenity": "pharmacy", "building": null, "healthcare": null, "healthcare:speciality": null, "operator:type": null, "capacity:persons": null, "addr:full": null, "addr:city": null, "source": null, "osm_id": 2072662363, "osm_type": "nodes" }, "geometry": { "type": "Point", "coordinates": [ 5.5829417, 6.3674497 ] } },
{ "type": "Feature", "properties": { "name": null, "name:en": null, "amenity": "hospital", "building": null, "healthcare": "hospital", "healthcare:speciality": null, "operator:type": null, "capacity:persons": null, "addr:full": null, "addr:city": null, "source": null, "osm_id": 7820264208, "osm_type": "nodes" }, "geometry": { "type": "Point", "coordinates": [ 11.9366747, 9.2373614 ] } },
{ "type": "Feature", "properties": { "name": "Davan Health Post", "name:en": null, "amenity": "hospital", "building": null, "healthcare": "hospital", "healthcare:speciality": null, "operator:type": null, "capacity:persons": null, "addr:full": null, "addr:city": null, "source": null, "osm_id": 7883272415, "osm_type": "nodes" }, "geometry": { "type": "Point", "coordinates": [ 11.9894126, 8.4223241 ] } },
{ "type": "Feature", "properties": { "name": "Timkolba Health Post", "name:en": null, "amenity": "hospital", "building": null, "healthcare": "hospital", "healthcare:speciality": null, "operator:type": null, "capacity:persons": null, "addr:full": null, "addr:city": null, "source": null, "osm_id": 7849425489, "osm_type": "nodes" }, "geometry": { "type": "Point", "coordinates": [ 11.9773903, 8.3235782 ] } },
{ "type": "Feature", "properties": { "name": "polo dispensary", "name:en": null, "amenity": "hospital", "building": null, "healthcare": "hospital", "healthcare:speciality": null, "operator:type": null, "capacity:persons": null, "addr:full": null, "addr:city": null, "source": null, "osm_id": 7826392263, "osm_type": "nodes" }, "geometry": { "type": "Point", "coordinates": [ 12.0355937, 8.6733599 ] } },
{ "type": "Feature", "properties": { "name": "gang alada clinic", "name:en": null, "amenity": "hospital", "building": null, "healthcare": "hospital", "healthcare:speciality": null, "operator:type": null, "capacity:persons": null, "addr:full": null, "addr:city": null, "source": null, "osm_id": 7824376674, "osm_type": "nodes" }, "geometry": { "type": "Point", "coordinates": [ 12.0395014, 8.7029125 ] } },
{ "type": "Feature", "properties": { "name": "Korko Dispensary", "name:en": null, "amenity": "doctors", "building": null, "healthcare": null, "healthcare:speciality": null, "operator:type": "public", "capacity:persons": null, "addr:full": "Korko, Jara Gol, Bayo, BO", "addr:city": null, "source": "ehealthafrica.org", "osm_id": 3459909006, "osm_type": "nodes" }, "geometry": { "type": "Point", "coordinates": [ 11.6036248, 10.2711866 ] } },
{ "type": "Feature", "properties": { "name": "Polytechnic Clinic", "name:en": null, "amenity": "hospital", "building": null, "healthcare": null, "healthcare:speciality": null, "operator:type": null, "capacity:persons": null, "addr:full": null, "addr:city": null, "source": "MSFsurvey", "osm_id": 7824111292, "osm_type": "nodes" }, "geometry": { "type": "Point", "coordinates": [ 6.5854159, 12.6374247 ] } },
{ "type": "Feature", "properties": { "name": "Primary Health Centre, Toru-Ebeni", "name:en": null, "amenity": "clinic", "building": null, "healthcare": null, "healthcare:speciality": null, "operator:type": null, "capacity:persons": null, "addr:full": null, "addr:city": null, "source": null, "osm_id": 7956224799, "osm_type": "nodes" }, "geometry": { "type": "Point", "coordinates": [ 6.0761034, 4.9800969 ] } },
{ "type": "Feature", "properties": { "name": "Health Centre, Tungbo", "name:en": null, "amenity": "clinic", "building": null, "healthcare": null, "healthcare:speciality": null, "operator:type": null, "capacity:persons": null, "addr:full": null, "addr:city": null, "source": null, "osm_id": 7956224902, "osm_type": "nodes" }, "geometry": { "type": "Point", "coordinates": [ 6.1679579, 5.12641 ] } },
{ "type": "Feature", "properties": { "name": "maitunku primary heath post", "name:en": null, "amenity": "hospital", "building": null, "healthcare": "hospital", "healthcare:speciality": null, "operator:type": null, "capacity:persons": null, "addr:full": null, "addr:city": null, "source": null, "osm_id": 7839074870, "osm_type": "nodes" }, "geometry": { "type": "Point", "coordinates": [ 11.5194783, 9.6038754 ] } },
{ "type": "Feature", "properties": { "name": null, "name:en": null, "amenity": "pharmacy", "building": null, "healthcare": null, "healthcare:speciality": null, "operator:type": null, "capacity:persons": null, "addr:full": null, "addr:city": null, "source": null, "osm_id": 2000016800, "osm_type": "nodes" }, "geometry": { "type": "Point", "coordinates": [ 5.5807576, 6.364194 ] } },
{ "type": "Feature", "properties": { "name": "reliance medical laboratary", "name:en": null, "amenity": "pharmacy", "building": null, "healthcare": null, "healthcare:speciality": null, "operator:type": null, "capacity:persons": null, "addr:full": null, "addr:city": null, "source": null, "osm_id": 2000020871, "osm_type": "nodes" }, "geometry": { "type": "Point", "coordinates": [ 5.5878529, 6.3638667 ] } },
{ "type": "Feature", "properties": { "name": "opalo primary heath clinic", "name:en": null, "amenity": "hospital", "building": null, "healthcare": "hospital", "healthcare:speciality": null, "operator:type": null, "capacity:persons": null, "addr:full": null, "addr:city": null, "source": null, "osm_id": 7837894075, "osm_type": "nodes" }, "geometry": { "type": "Point", "coordinates": [ 11.9287105, 9.5106572 ] } },
{ "type": "Feature", "properties": { "name": "Wuro Bakumbo Health Post", "name:en": null, "amenity": "hospital", "building": null, "healthcare": "hospital", "healthcare:speciality": null, "operator:type": null, "capacity:persons": null, "addr:full": null, "addr:city": null, "source": null, "osm_id": 7839492002, "osm_type": "nodes" }, "geometry": { "type": "Point", "coordinates": [ 12.0240689, 9.3073231 ] } },
{ "type": "Feature", "properties": { "name": "Kedemure Primary Health Center", "name:en": null, "amenity": "hospital", "building": null, "healthcare": "hospital", "healthcare:speciality": null, "operator:type": null, "capacity:persons": null, "addr:full": null, "addr:city": null, "source": null, "osm_id": 7838186141, "osm_type": "nodes" }, "geometry": { "type": "Point", "coordinates": [ 12.0013357, 9.3323756 ] } },
{ "type": "Feature", "properties": { "name": "Kagara Primary Health Clinic and Dispensary", "name:en": null, "amenity": "clinic", "building": null, "healthcare": null, "healthcare:speciality": null, "operator:type": null, "capacity:persons": null, "addr:full": null, "addr:city": null, "source": "MSFsurvey", "osm_id": 4590931920, "osm_type": "nodes" }, "geometry": { "type": "Point", "coordinates": [ 5.6022867, 13.3930213 ] } },
{ "type": "Feature", "properties": { "name": "General Hospital ahoada", "name:en": null, "amenity": "hospital", "building": null, "healthcare": null, "healthcare:speciality": null, "operator:type": null, "capacity:persons": null, "addr:full": null, "addr:city": null, "source": null, "osm_id": 5473321621, "osm_type": "nodes" }, "geometry": { "type": "Point", "coordinates": [ 6.6450764, 5.0930155 ] } },
{ "type": "Feature", "properties": { "name": "Ruka-Med pharmacy and stores", "name:en": null, "amenity": "pharmacy", "building": null, "healthcare": null, "healthcare:speciality": null, "operator:type": null, "capacity:persons": null, "addr:full": null, "addr:city": null, "source": null, "osm_id": 9808221855, "osm_type": "nodes" }, "geometry": { "type": "Point", "coordinates": [ 8.8560044, 9.9581697 ] } },
{ "type": "Feature", "properties": { "name": "Mbulo Primary Health Center", "name:en": null, "amenity": null, "building": null, "healthcare": "primary", "healthcare:speciality": null, "operator:type": null, "capacity:persons": null, "addr:full": null, "addr:city": null, "source": null, "osm_id": 7876529965, "osm_type": "nodes" }, "geometry": { "type": "Point", "coordinates": [ 12.0253401, 8.6463421 ] } },
{ "type": "Feature", "properties": { "name": "Ngbebonge Health Post", "name:en": null, "amenity": null, "building": null, "healthcare": "primary", "healthcare:speciality": null, "operator:type": null, "capacity:persons": null, "addr:full": null, "addr:city": null, "source": null, "osm_id": 7880032588, "osm_type": "nodes" }, "geometry": { "type": "Point", "coordinates": [ 11.833209, 9.6249356 ] } },
{ "type": "Feature", "properties": { "name": "Sabon Layin Primary Health Center", "name:en": null, "amenity": null, "building": null, "healthcare": "primary", "healthcare:speciality": null, "operator:type": null, "capacity:persons": null, "addr:full": null, "addr:city": null, "source": null, "osm_id": 7880175515, "osm_type": "nodes" }, "geometry": { "type": "Point", "coordinates": [ 11.734827, 9.5766222 ] } },
{ "type": "Feature", "properties": { "name": "Lobati Health Post", "name:en": null, "amenity": null, "building": null, "healthcare": "primary", "healthcare:speciality": null, "operator:type": null, "capacity:persons": null, "addr:full": null, "addr:city": null, "source": null, "osm_id": 7882219457, "osm_type": "nodes" }, "geometry": { "type": "Point", "coordinates": [ 11.4904076, 9.5971711 ] } },
{ "type": "Feature", "properties": { "name": "Island Clinic", "name:en": null, "amenity": "clinic", "building": null, "healthcare": null, "healthcare:speciality": null, "operator:type": null, "capacity:persons": null, "addr:full": null, "addr:city": null, "source": null, "osm_id": 5577094828, "osm_type": "nodes" }, "geometry": { "type": "Point", "coordinates": [ 5.758032, 5.5355616 ] } },
{ "type": "Feature", "properties": { "name": "Primary Health Center, Emekuku", "name:en": null, "amenity": "hospital", "building": null, "healthcare": null, "healthcare:speciality": null, "operator:type": null, "capacity:persons": null, "addr:full": null, "addr:city": null, "source": null, "osm_id": 6763505887, "osm_type": "nodes" }, "geometry": { "type": "Point", "coordinates": [ 6.9965595, 4.7941024 ] } },
{ "type": "Feature", "properties": { "name": null, "name:en": null, "amenity": "pharmacy", "building": null, "healthcare": null, "healthcare:speciality": null, "operator:type": null, "capacity:persons": null, "addr:full": null, "addr:city": null, "source": "nigeriase4all.gov.ng", "osm_id": 9912646369, "osm_type": "nodes" }, "geometry": { "type": "Point", "coordinates": [ 6.5142597, 4.8204434 ] } },
{ "type": "Feature", "properties": { "name": "Sudugi Health Centre", "name:en": null, "amenity": "doctors", "building": null, "healthcare": "doctor", "healthcare:speciality": null, "operator:type": null, "capacity:persons": null, "addr:full": null, "addr:city": null, "source": null, "osm_id": 8057503300, "osm_type": "nodes" }, "geometry": { "type": "Point", "coordinates": [ 6.5301664, 9.1275694 ] } },
{ "type": "Feature", "properties": { "name": "Phc Rikkina", "name:en": null, "amenity": "doctors", "building": null, "healthcare": null, "healthcare:speciality": null, "operator:type": null, "capacity:persons": null, "addr:full": null, "addr:city": null, "source": "MSFsurvey", "osm_id": 7734826319, "osm_type": "nodes" }, "geometry": { "type": "Point", "coordinates": [ 5.2919934, 12.9775473 ] } },
{ "type": "Feature", "properties": { "name": "Fajaldu Comprehensive Health Centre", "name:en": null, "amenity": "doctors", "building": null, "healthcare": null, "healthcare:speciality": null, "operator:type": null, "capacity:persons": null, "addr:full": null, "addr:city": null, "source": "MSFsurvey", "osm_id": 7734688281, "osm_type": "nodes" }, "geometry": { "type": "Point", "coordinates": [ 5.3801599, 12.8421012 ] } },
{ "type": "Feature", "properties": { "name": null, "name:en": null, "amenity": "pharmacy", "building": null, "healthcare": "pharmacy", "healthcare:speciality": null, "operator:type": null, "capacity:persons": null, "addr:full": null, "addr:city": null, "source": null, "osm_id": 4549849155, "osm_type": "nodes" }, "geometry": { "type": "Point", "coordinates": [ 7.4925275, 9.1040241 ] } },
{ "type": "Feature", "properties": { "name": null, "name:en": null, "amenity": "pharmacy", "building": null, "healthcare": null, "healthcare:speciality": null, "operator:type": null, "capacity:persons": null, "addr:full": null, "addr:city": null, "source": "nigeriase4all.gov.ng", "osm_id": 9911548976, "osm_type": "nodes" }, "geometry": { "type": "Point", "coordinates": [ 5.3544267, 6.2510887 ] } },
{ "type": "Feature", "properties": { "name": null, "name:en": null, "amenity": "hospital", "building": null, "healthcare": "hospital", "healthcare:speciality": null, "operator:type": null, "capacity:persons": null, "addr:full": null, "addr:city": null, "source": null, "osm_id": 7434570797, "osm_type": "nodes" }, "geometry": { "type": "Point", "coordinates": [ 10.3351897, 13.092144 ] } },
{ "type": "Feature", "properties": { "name": "Pamo", "name:en": null, "amenity": "hospital", "building": null, "healthcare": null, "healthcare:speciality": null, "operator:type": null, "capacity:persons": null, "addr:full": null, "addr:city": "Port Harcourt", "source": null, "osm_id": 7956224601, "osm_type": "nodes" }, "geometry": { "type": "Point", "coordinates": [ 7.0246732, 4.8375574 ] } },
{ "type": "Feature", "properties": { "name": "Dawal Dispensary", "name:en": null, "amenity": "doctors", "building": null, "healthcare": null, "healthcare:speciality": null, "operator:type": "public", "capacity:persons": null, "addr:full": "Dawal, Limanti, Bayo, BO", "addr:city": null, "source": "ehealthafrica.org", "osm_id": 3667918146, "osm_type": "nodes" }, "geometry": { "type": "Point", "coordinates": [ 11.7128877, 10.6008128 ] } },
{ "type": "Feature", "properties": { "name": "Will Of God Medicine & Supermarket", "name:en": null, "amenity": "pharmacy", "building": null, "healthcare": "pharmacy", "healthcare:speciality": null, "operator:type": null, "capacity:persons": null, "addr:full": null, "addr:city": null, "source": null, "osm_id": 11934291536, "osm_type": "nodes" }, "geometry": { "type": "Point", "coordinates": [ 5.1502656, 7.291875 ] } },
{ "type": "Feature", "properties": { "name": "Olyros Hospital", "name:en": "Olyros Hospital", "amenity": "hospital", "building": null, "healthcare": "hospital", "healthcare:speciality": null, "operator:type": "private", "capacity:persons": null, "addr:full": null, "addr:city": null, "source": null, "osm_id": 11934296154, "osm_type": "nodes" }, "geometry": { "type": "Point", "coordinates": [ 5.1502071, 7.2925929 ] } },
{ "type": "Feature", "properties": { "name": null, "name:en": null, "amenity": "pharmacy", "building": null, "healthcare": null, "healthcare:speciality": null, "operator:type": null, "capacity:persons": null, "addr:full": null, "addr:city": null, "source": null, "osm_id": 1842624277, "osm_type": "nodes" }, "geometry": { "type": "Point", "coordinates": [ 6.6043634, 7.5611694 ] } },
{ "type": "Feature", "properties": { "name": "Kafin Zaka Dispensary", "name:en": null, "amenity": "hospital", "building": null, "healthcare": null, "healthcare:speciality": null, "operator:type": "public", "capacity:persons": null, "addr:full": "Sarma, Misau, Bauchi", "addr:city": null, "source": "ehealthafrica.org", "osm_id": 3059336157, "osm_type": "nodes" }, "geometry": { "type": "Point", "coordinates": [ 10.6625371, 11.4933332 ] } },
{ "type": "Feature", "properties": { "name": "Primary Health Centre", "name:en": null, "amenity": "doctors", "building": null, "healthcare": "doctor", "healthcare:speciality": null, "operator:type": null, "capacity:persons": null, "addr:full": null, "addr:city": null, "source": "MSFsurvey", "osm_id": 7917275077, "osm_type": "nodes" }, "geometry": { "type": "Point", "coordinates": [ 6.5610293, 12.4931741 ] } },
{ "type": "Feature", "properties": { "name": "Health Plus", "name:en": null, "amenity": "pharmacy", "building": null, "healthcare": "pharmacy", "healthcare:speciality": null, "operator:type": null, "capacity:persons": null, "addr:full": null, "addr:city": null, "source": null, "osm_id": 5902076590, "osm_type": "nodes" }, "geometry": { "type": "Point", "coordinates": [ 3.3542673, 6.5969362 ] } },
{ "type": "Feature", "properties": { "name": "Jerusaves pharmacy & Lab", "name:en": null, "amenity": "pharmacy", "building": null, "healthcare": null, "healthcare:speciality": null, "operator:type": null, "capacity:persons": null, "addr:full": null, "addr:city": null, "source": null, "osm_id": 6139347686, "osm_type": "nodes" }, "geometry": { "type": "Point", "coordinates": [ 7.4586676, 10.4500505 ] } },
{ "type": "Feature", "properties": { "name": "Regina Mundi Catholic Hospital", "name:en": null, "amenity": "hospital", "building": null, "healthcare": null, "healthcare:speciality": null, "operator:type": null, "capacity:persons": null, "addr:full": null, "addr:city": null, "source": null, "osm_id": 11926018050, "osm_type": "nodes" }, "geometry": { "type": "Point", "coordinates": [ 3.3555561, 6.5272869 ] } },
{ "type": "Feature", "properties": { "name": "Debof Clinicks Ltd", "name:en": null, "amenity": "hospital", "building": null, "healthcare": null, "healthcare:speciality": null, "operator:type": null, "capacity:persons": null, "addr:full": null, "addr:city": null, "source": null, "osm_id": 11926103976, "osm_type": "nodes" }, "geometry": { "type": "Point", "coordinates": [ 3.3455354, 6.5381459 ] } },
{ "type": "Feature", "properties": { "name": "Oluwalase Clinic", "name:en": null, "amenity": "hospital", "building": null, "healthcare": null, "healthcare:speciality": null, "operator:type": null, "capacity:persons": null, "addr:full": null, "addr:city": null, "source": null, "osm_id": 11926103977, "osm_type": "nodes" }, "geometry": { "type": "Point", "coordinates": [ 3.3438456, 6.5387948 ] } },
{ "type": "Feature", "properties": { "name": "Palm Avenue Primary Health Centre", "name:en": null, "amenity": "hospital", "building": null, "healthcare": null, "healthcare:speciality": null, "operator:type": null, "capacity:persons": null, "addr:full": null, "addr:city": null, "source": null, "osm_id": 11926103978, "osm_type": "nodes" }, "geometry": { "type": "Point", "coordinates": [ 3.3498108, 6.5365284 ] } },
{ "type": "Feature", "properties": { "name": "New Bethsaida Hospital Maternity", "name:en": null, "amenity": "hospital", "building": null, "healthcare": null, "healthcare:speciality": null, "operator:type": null, "capacity:persons": null, "addr:full": null, "addr:city": null, "source": null, "osm_id": 11926103979, "osm_type": "nodes" }, "geometry": { "type": "Point", "coordinates": [ 3.3506745, 6.5363019 ] } },
{ "type": "Feature", "properties": { "name": "Cedar Clinic", "name:en": null, "amenity": "hospital", "building": null, "healthcare": null, "healthcare:speciality": null, "operator:type": null, "capacity:persons": null, "addr:full": null, "addr:city": null, "source": null, "osm_id": 11926103980, "osm_type": "nodes" }, "geometry": { "type": "Point", "coordinates": [ 3.347712, 6.5326445 ] } },
{ "type": "Feature", "properties": { "name": "Mercy Maternity Center", "name:en": null, "amenity": "hospital", "building": null, "healthcare": null, "healthcare:speciality": null, "operator:type": null, "capacity:persons": null, "addr:full": null, "addr:city": null, "source": null, "osm_id": 11926103981, "osm_type": "nodes" }, "geometry": { "type": "Point", "coordinates": [ 3.3460906, 6.5342301 ] } },
{ "type": "Feature", "properties": { "name": "Diamond Clinic", "name:en": null, "amenity": "hospital", "building": null, "healthcare": null, "healthcare:speciality": null, "operator:type": null, "capacity:persons": null, "addr:full": null, "addr:city": null, "source": null, "osm_id": 11926103982, "osm_type": "nodes" }, "geometry": { "type": "Point", "coordinates": [ 3.3465788, 6.5340715 ] } },
{ "type": "Feature", "properties": { "name": "Hillstar Hospital", "name:en": null, "amenity": "hospital", "building": null, "healthcare": null, "healthcare:speciality": null, "operator:type": null, "capacity:persons": null, "addr:full": null, "addr:city": null, "source": null, "osm_id": 11926103983, "osm_type": "nodes" }, "geometry": { "type": "Point", "coordinates": [ 3.3448541, 6.534346 ] } },
{ "type": "Feature", "properties": { "name": "Rally Hospital", "name:en": null, "amenity": "hospital", "building": null, "healthcare": null, "healthcare:speciality": null, "operator:type": null, "capacity:persons": null, "addr:full": null, "addr:city": null, "source": null, "osm_id": 11926018051, "osm_type": "nodes" }, "geometry": { "type": "Point", "coordinates": [ 3.3624615, 6.5414382 ] } },
{ "type": "Feature", "properties": { "name": "Ultima Medical Hospital", "name:en": null, "amenity": "hospital", "building": null, "healthcare": null, "healthcare:speciality": null, "operator:type": null, "capacity:persons": null, "addr:full": null, "addr:city": null, "source": null, "osm_id": 11926018052, "osm_type": "nodes" }, "geometry": { "type": "Point", "coordinates": [ 3.3666913, 6.5405376 ] } },
{ "type": "Feature", "properties": { "name": "Tolajide Health Centre", "name:en": null, "amenity": "hospital", "building": null, "healthcare": null, "healthcare:speciality": null, "operator:type": null, "capacity:persons": null, "addr:full": null, "addr:city": null, "source": null, "osm_id": 11926018053, "osm_type": "nodes" }, "geometry": { "type": "Point", "coordinates": [ 3.3567122, 6.5289577 ] } },
{ "type": "Feature", "properties": { "name": "Mojide Specialist Hospital", "name:en": null, "amenity": "hospital", "building": null, "healthcare": null, "healthcare:speciality": null, "operator:type": null, "capacity:persons": null, "addr:full": null, "addr:city": null, "source": null, "osm_id": 11926018054, "osm_type": "nodes" }, "geometry": { "type": "Point", "coordinates": [ 3.3640051, 6.5392252 ] } },
{ "type": "Feature", "properties": { "name": "Fafty Clinic", "name:en": null, "amenity": "hospital", "building": null, "healthcare": null, "healthcare:speciality": null, "operator:type": null, "capacity:persons": null, "addr:full": null, "addr:city": null, "source": null, "osm_id": 11926018055, "osm_type": "nodes" }, "geometry": { "type": "Point", "coordinates": [ 3.3634472, 6.5389614 ] } },
{ "type": "Feature", "properties": { "name": "Omo Medical Health Center", "name:en": null, "amenity": "hospital", "building": null, "healthcare": null, "healthcare:speciality": null, "operator:type": null, "capacity:persons": null, "addr:full": null, "addr:city": null, "source": null, "osm_id": 11926018056, "osm_type": "nodes" }, "geometry": { "type": "Point", "coordinates": [ 3.3637798, 6.5388068 ] } },
{ "type": "Feature", "properties": { "name": "Fountain Of Grace Hospital", "name:en": null, "amenity": "hospital", "building": null, "healthcare": null, "healthcare:speciality": null, "operator:type": null, "capacity:persons": null, "addr:full": null, "addr:city": null, "source": null, "osm_id": 11926018057, "osm_type": "nodes" }, "geometry": { "type": "Point", "coordinates": [ 3.3502775, 6.5374078 ] } },
{ "type": "Feature", "properties": { "name": "Fafolu Mga Center", "name:en": null, "amenity": "hospital", "building": null, "healthcare": null, "healthcare:speciality": null, "operator:type": null, "capacity:persons": null, "addr:full": null, "addr:city": null, "source": null, "osm_id": 11926018058, "osm_type": "nodes" }, "geometry": { "type": "Point", "coordinates": [ 3.3547944, 6.5374718 ] } },
{ "type": "Feature", "properties": { "name": "Ebenezer Specialist Clinic and Maternity", "name:en": null, "amenity": "hospital", "building": null, "healthcare": null, "healthcare:speciality": null, "operator:type": null, "capacity:persons": null, "addr:full": null, "addr:city": null, "source": null, "osm_id": 11926018059, "osm_type": "nodes" }, "geometry": { "type": "Point", "coordinates": [ 3.3548588, 6.5390013 ] } },
{ "type": "Feature", "properties": { "name": "Merit Medical Clinic", "name:en": null, "amenity": "hospital", "building": null, "healthcare": null, "healthcare:speciality": null, "operator:type": null, "capacity:persons": null, "addr:full": null, "addr:city": null, "source": null, "osm_id": 11926018060, "osm_type": "nodes" }, "geometry": { "type": "Point", "coordinates": [ 3.3534291, 6.5367736 ] } },
{ "type": "Feature", "properties": { "name": "Olutoba Clinic", "name:en": null, "amenity": "hospital", "building": null, "healthcare": null, "healthcare:speciality": null, "operator:type": null, "capacity:persons": null, "addr:full": null, "addr:city": null, "source": null, "osm_id": 11926018061, "osm_type": "nodes" }, "geometry": { "type": "Point", "coordinates": [ 3.3544578, 6.5298238 ] } },
{ "type": "Feature", "properties": { "name": "Heritage Hospital", "name:en": null, "amenity": "hospital", "building": null, "healthcare": null, "healthcare:speciality": null, "operator:type": null, "capacity:persons": null, "addr:full": null, "addr:city": null, "source": null, "osm_id": 11926018062, "osm_type": "nodes" }, "geometry": { "type": "Point", "coordinates": [ 3.3562991, 6.5335679 ] } },
{ "type": "Feature", "properties": { "name": "Fafolu Clinic and Maternity Home", "name:en": null, "amenity": "hospital", "building": null, "healthcare": null, "healthcare:speciality": null, "operator:type": null, "capacity:persons": null, "addr:full": null, "addr:city": null, "source": null, "osm_id": 11926018063, "osm_type": "nodes" }, "geometry": { "type": "Point", "coordinates": [ 3.3553952, 6.5346151 ] } },
{ "type": "Feature", "properties": { "name": "Calvaty Med Center", "name:en": null, "amenity": "hospital", "building": null, "healthcare": null, "healthcare:speciality": null, "operator:type": null, "capacity:persons": null, "addr:full": null, "addr:city": null, "source": null, "osm_id": 11926018064, "osm_type": "nodes" }, "geometry": { "type": "Point", "coordinates": [ 3.3518936, 6.5356144 ] } },
{ "type": "Feature", "properties": { "name": "Canvalescent And Health Care Center", "name:en": null, "amenity": "hospital", "building": null, "healthcare": null, "healthcare:speciality": null, "operator:type": null, "capacity:persons": null, "addr:full": null, "addr:city": null, "source": null, "osm_id": 11926103984, "osm_type": "nodes" }, "geometry": { "type": "Point", "coordinates": [ 3.3447012, 6.5340462 ] } },
{ "type": "Feature", "properties": { "name": "Nature Hospital", "name:en": null, "amenity": "hospital", "building": null, "healthcare": null, "healthcare:speciality": null, "operator:type": null, "capacity:persons": null, "addr:full": null, "addr:city": null, "source": null, "osm_id": 11926103985, "osm_type": "nodes" }, "geometry": { "type": "Point", "coordinates": [ 3.3476704, 6.5313441 ] } },
{ "type": "Feature", "properties": { "name": "John Vic Clinic", "name:en": null, "amenity": "hospital", "building": null, "healthcare": null, "healthcare:speciality": null, "operator:type": null, "capacity:persons": null, "addr:full": null, "addr:city": null, "source": null, "osm_id": 11926103986, "osm_type": "nodes" }, "geometry": { "type": "Point", "coordinates": [ 3.3460061, 6.5319503 ] } },
{ "type": "Feature", "properties": { "name": "Rembo Hospital", "name:en": null, "amenity": "hospital", "building": null, "healthcare": null, "healthcare:speciality": null, "operator:type": null, "capacity:persons": null, "addr:full": null, "addr:city": null, "source": null, "osm_id": 11926103988, "osm_type": "nodes" }, "geometry": { "type": "Point", "coordinates": [ 3.3437088, 6.531879 ] } },
{ "type": "Feature", "properties": { "name": "St Andrew Hospital", "name:en": null, "amenity": "hospital", "building": null, "healthcare": null, "healthcare:speciality": null, "operator:type": null, "capacity:persons": null, "addr:full": null, "addr:city": null, "source": null, "osm_id": 11926103989, "osm_type": "nodes" }, "geometry": { "type": "Point", "coordinates": [ 3.3427352, 6.5316625 ] } },
{ "type": "Feature", "properties": { "name": "Huse Of Peace Specialist Clinic", "name:en": null, "amenity": "hospital", "building": null, "healthcare": null, "healthcare:speciality": null, "operator:type": null, "capacity:persons": null, "addr:full": null, "addr:city": null, "source": null, "osm_id": 11926103990, "osm_type": "nodes" }, "geometry": { "type": "Point", "coordinates": [ 3.3407208, 6.5314214 ] } },
{ "type": "Feature", "properties": { "name": "Sentinel Hospital", "name:en": null, "amenity": "hospital", "building": null, "healthcare": null, "healthcare:speciality": null, "operator:type": null, "capacity:persons": null, "addr:full": null, "addr:city": null, "source": null, "osm_id": 11926103991, "osm_type": "nodes" }, "geometry": { "type": "Point", "coordinates": [ 3.3419614, 6.532839 ] } },
{ "type": "Feature", "properties": { "name": "Saint Claire Hospital Ltd", "name:en": null, "amenity": "hospital", "building": null, "healthcare": null, "healthcare:speciality": null, "operator:type": null, "capacity:persons": null, "addr:full": null, "addr:city": null, "source": null, "osm_id": 11926103992, "osm_type": "nodes" }, "geometry": { "type": "Point", "coordinates": [ 3.3396587, 6.5365557 ] } },
{ "type": "Feature", "properties": { "name": "Saltak Consualtant Home", "name:en": null, "amenity": "hospital", "building": null, "healthcare": null, "healthcare:speciality": null, "operator:type": null, "capacity:persons": null, "addr:full": null, "addr:city": null, "source": null, "osm_id": 11925925651, "osm_type": "nodes" }, "geometry": { "type": "Point", "coordinates": [ 3.3511654, 6.5276966 ] } },
{ "type": "Feature", "properties": { "name": "Orisegun Med Center", "name:en": null, "amenity": "hospital", "building": null, "healthcare": null, "healthcare:speciality": null, "operator:type": null, "capacity:persons": null, "addr:full": null, "addr:city": null, "source": null, "osm_id": 11925925655, "osm_type": "nodes" }, "geometry": { "type": "Point", "coordinates": [ 3.349666, 6.5249139 ] } },
{ "type": "Feature", "properties": { "name": "Saint Kizito Clinic", "name:en": null, "amenity": "hospital", "building": null, "healthcare": null, "healthcare:speciality": null, "operator:type": null, "capacity:persons": null, "addr:full": null, "addr:city": null, "source": null, "osm_id": 11925925656, "osm_type": "nodes" }, "geometry": { "type": "Point", "coordinates": [ 3.3516663, 6.5208093 ] } },
{ "type": "Feature", "properties": { "name": "Labake Maternity Center", "name:en": null, "amenity": "hospital", "building": null, "healthcare": null, "healthcare:speciality": null, "operator:type": null, "capacity:persons": null, "addr:full": null, "addr:city": null, "source": null, "osm_id": 11925925658, "osm_type": "nodes" }, "geometry": { "type": "Point", "coordinates": [ 3.3443338, 6.5214642 ] } },
{ "type": "Feature", "properties": { "name": "Odus Health Center", "name:en": null, "amenity": "hospital", "building": null, "healthcare": null, "healthcare:speciality": null, "operator:type": null, "capacity:persons": null, "addr:full": null, "addr:city": null, "source": null, "osm_id": 11925925659, "osm_type": "nodes" }, "geometry": { "type": "Point", "coordinates": [ 3.3449507, 6.5211178 ] } },
{ "type": "Feature", "properties": { "name": "Awesome Grace Hospital", "name:en": null, "amenity": "hospital", "building": null, "healthcare": null, "healthcare:speciality": null, "operator:type": null, "capacity:persons": null, "addr:full": null, "addr:city": null, "source": null, "osm_id": 11925925660, "osm_type": "nodes" }, "geometry": { "type": "Point", "coordinates": [ 3.344999, 6.5208753 ] } },
{ "type": "Feature", "properties": { "name": "A Aand A Medical Diagostic Center", "name:en": null, "amenity": "hospital", "building": null, "healthcare": null, "healthcare:speciality": null, "operator:type": null, "capacity:persons": null, "addr:full": null, "addr:city": null, "source": null, "osm_id": 11925925664, "osm_type": "nodes" }, "geometry": { "type": "Point", "coordinates": [ 3.3561402, 6.5147048 ] } },
{ "type": "Feature", "properties": { "name": "Aishat Specialist Hospital Limited", "name:en": null, "amenity": "hospital", "building": null, "healthcare": null, "healthcare:speciality": null, "operator:type": null, "capacity:persons": null, "addr:full": null, "addr:city": null, "source": null, "osm_id": 11925925665, "osm_type": "nodes" }, "geometry": { "type": "Point", "coordinates": [ 3.3512633, 6.5192031 ] } },
{ "type": "Feature", "properties": { "name": "Ola Omoyenji Maternity Home", "name:en": null, "amenity": "hospital", "building": null, "healthcare": null, "healthcare:speciality": null, "operator:type": null, "capacity:persons": null, "addr:full": null, "addr:city": null, "source": null, "osm_id": 11925925666, "osm_type": "nodes" }, "geometry": { "type": "Point", "coordinates": [ 3.3473741, 6.5174233 ] } },
{ "type": "Feature", "properties": { "name": "Dela Nursing Home", "name:en": null, "amenity": "hospital", "building": null, "healthcare": null, "healthcare:speciality": null, "operator:type": null, "capacity:persons": null, "addr:full": null, "addr:city": null, "source": null, "osm_id": 11925925667, "osm_type": "nodes" }, "geometry": { "type": "Point", "coordinates": [ 3.346552, 6.5169846 ] } },
{ "type": "Feature", "properties": { "name": "Betlem Hospital", "name:en": null, "amenity": "hospital", "building": null, "healthcare": null, "healthcare:speciality": null, "operator:type": null, "capacity:persons": null, "addr:full": null, "addr:city": null, "source": null, "osm_id": 11925925668, "osm_type": "nodes" }, "geometry": { "type": "Point", "coordinates": [ 3.3442801, 6.5164769 ] } },
{ "type": "Feature", "properties": { "name": "Alves Primary Health Center", "name:en": null, "amenity": "hospital", "building": null, "healthcare": null, "healthcare:speciality": null, "operator:type": null, "capacity:persons": null, "addr:full": null, "addr:city": null, "source": null, "osm_id": 11925928170, "osm_type": "nodes" }, "geometry": { "type": "Point", "coordinates": [ 3.3447448, 6.5145596 ] } },
{ "type": "Feature", "properties": { "name": "Mount Camel Hospital", "name:en": null, "amenity": "hospital", "building": null, "healthcare": null, "healthcare:speciality": null, "operator:type": null, "capacity:persons": null, "addr:full": null, "addr:city": null, "source": null, "osm_id": 11925928171, "osm_type": "nodes" }, "geometry": { "type": "Point", "coordinates": [ 3.3428961, 6.5150139 ] } },
{ "type": "Feature", "properties": { "name": "Belan Consultant Home", "name:en": null, "amenity": "hospital", "building": null, "healthcare": null, "healthcare:speciality": null, "operator:type": null, "capacity:persons": null, "addr:full": null, "addr:city": null, "source": null, "osm_id": 11925928172, "osm_type": "nodes" }, "geometry": { "type": "Point", "coordinates": [ 3.3415738, 6.514369 ] } },
{ "type": "Feature", "properties": { "name": "Mountain Of Fire Hospital", "name:en": null, "amenity": "hospital", "building": null, "healthcare": null, "healthcare:speciality": null, "operator:type": null, "capacity:persons": null, "addr:full": null, "addr:city": null, "source": null, "osm_id": 11925959178, "osm_type": "nodes" }, "geometry": { "type": "Point", "coordinates": [ 3.3291002, 6.5085142 ] } },
{ "type": "Feature", "properties": { "name": "Able God Hospital Maternity", "name:en": null, "amenity": "hospital", "building": null, "healthcare": null, "healthcare:speciality": null, "operator:type": null, "capacity:persons": null, "addr:full": null, "addr:city": null, "source": null, "osm_id": 11925959179, "osm_type": "nodes" }, "geometry": { "type": "Point", "coordinates": [ 3.3317381, 6.5041024 ] } },
{ "type": "Feature", "properties": { "name": "Adetutu Clinic Ltd", "name:en": null, "amenity": "hospital", "building": null, "healthcare": null, "healthcare:speciality": null, "operator:type": null, "capacity:persons": null, "addr:full": null, "addr:city": null, "source": null, "osm_id": 11925959180, "osm_type": "nodes" }, "geometry": { "type": "Point", "coordinates": [ 3.329013, 6.5033136 ] } },
{ "type": "Feature", "properties": { "name": "Am Hospital", "name:en": null, "amenity": "hospital", "building": null, "healthcare": null, "healthcare:speciality": null, "operator:type": null, "capacity:persons": null, "addr:full": null, "addr:city": null, "source": null, "osm_id": 11925959181, "osm_type": "nodes" }, "geometry": { "type": "Point", "coordinates": [ 3.3278207, 6.5018372 ] } },
{ "type": "Feature", "properties": { "name": "Bimtom Hospital", "name:en": null, "amenity": "hospital", "building": null, "healthcare": null, "healthcare:speciality": null, "operator:type": null, "capacity:persons": null, "addr:full": null, "addr:city": null, "source": null, "osm_id": 11925959182, "osm_type": "nodes" }, "geometry": { "type": "Point", "coordinates": [ 3.3273024, 6.4995393 ] } },
{ "type": "Feature", "properties": { "name": "Iyalode Bisoye", "name:en": null, "amenity": "hospital", "building": null, "healthcare": null, "healthcare:speciality": null, "operator:type": null, "capacity:persons": null, "addr:full": null, "addr:city": null, "source": null, "osm_id": 11925999040, "osm_type": "nodes" }, "geometry": { "type": "Point", "coordinates": [ 3.359617, 6.5453501 ] } },
{ "type": "Feature", "properties": { "name": "Nidus Aquilae", "name:en": null, "amenity": "hospital", "building": null, "healthcare": null, "healthcare:speciality": null, "operator:type": null, "capacity:persons": null, "addr:full": null, "addr:city": null, "source": null, "osm_id": 11925999041, "osm_type": "nodes" }, "geometry": { "type": "Point", "coordinates": [ 3.3611874, 6.546773 ] } },
{ "type": "Feature", "properties": { "name": "Grace Springs Med Clinic", "name:en": null, "amenity": "hospital", "building": null, "healthcare": null, "healthcare:speciality": null, "operator:type": null, "capacity:persons": null, "addr:full": null, "addr:city": null, "source": null, "osm_id": 11925999042, "osm_type": "nodes" }, "geometry": { "type": "Point", "coordinates": [ 3.361343, 6.5466145 ] } },
{ "type": "Feature", "properties": { "name": "Coker Primary Health Center", "name:en": null, "amenity": "hospital", "building": null, "healthcare": null, "healthcare:speciality": null, "operator:type": null, "capacity:persons": null, "addr:full": null, "addr:city": null, "source": null, "osm_id": 11925999043, "osm_type": "nodes" }, "geometry": { "type": "Point", "coordinates": [ 3.3616461, 6.5485278 ] } },
{ "type": "Feature", "properties": { "name": "May Hospital Ilupeju", "name:en": null, "amenity": "hospital", "building": null, "healthcare": null, "healthcare:speciality": null, "operator:type": null, "capacity:persons": null, "addr:full": null, "addr:city": null, "source": null, "osm_id": 11925999044, "osm_type": "nodes" }, "geometry": { "type": "Point", "coordinates": [ 3.359448, 6.5483386 ] } },
{ "type": "Feature", "properties": { "name": "Sharon Clinic", "name:en": null, "amenity": "hospital", "building": null, "healthcare": null, "healthcare:speciality": null, "operator:type": null, "capacity:persons": null, "addr:full": null, "addr:city": null, "source": null, "osm_id": 11925999047, "osm_type": "nodes" }, "geometry": { "type": "Point", "coordinates": [ 3.3603385, 6.553618 ] } },
{ "type": "Feature", "properties": { "name": "Odonton Ville Dental Clinic", "name:en": null, "amenity": "hospital", "building": null, "healthcare": null, "healthcare:speciality": null, "operator:type": null, "capacity:persons": null, "addr:full": null, "addr:city": null, "source": null, "osm_id": 11925999048, "osm_type": "nodes" }, "geometry": { "type": "Point", "coordinates": [ 3.3640601, 6.5572946 ] } },
{ "type": "Feature", "properties": { "name": "Glasmithkline Company Clinic", "name:en": null, "amenity": "hospital", "building": null, "healthcare": null, "healthcare:speciality": null, "operator:type": null, "capacity:persons": null, "addr:full": null, "addr:city": null, "source": null, "osm_id": 11925999051, "osm_type": "nodes" }, "geometry": { "type": "Point", "coordinates": [ 3.354435, 6.5546725 ] } },
{ "type": "Feature", "properties": { "name": "Mecure Health Care", "name:en": null, "amenity": "hospital", "building": null, "healthcare": null, "healthcare:speciality": null, "operator:type": null, "capacity:persons": null, "addr:full": null, "addr:city": null, "source": null, "osm_id": 11925999052, "osm_type": "nodes" }, "geometry": { "type": "Point", "coordinates": [ 3.3466727, 6.5530737 ] } },
{ "type": "Feature", "properties": { "name": "Federal Medical Centre", "name:en": null, "amenity": "hospital", "building": null, "healthcare": null, "healthcare:speciality": null, "operator:type": null, "capacity:persons": null, "addr:full": null, "addr:city": null, "source": null, "osm_id": 11925999053, "osm_type": "nodes" }, "geometry": { "type": "Point", "coordinates": [ 3.3501414, 6.5506968 ] } },
{ "type": "Feature", "properties": { "name": "Goodhope Clinic and Maternity", "name:en": null, "amenity": "hospital", "building": null, "healthcare": null, "healthcare:speciality": null, "operator:type": null, "capacity:persons": null, "addr:full": null, "addr:city": null, "source": null, "osm_id": 11925999056, "osm_type": "nodes" }, "geometry": { "type": "Point", "coordinates": [ 3.344256, 6.5444854 ] } },
{ "type": "Feature", "properties": { "name": "Divine Favour Maternity Home", "name:en": null, "amenity": "hospital", "building": null, "healthcare": null, "healthcare:speciality": null, "operator:type": null, "capacity:persons": null, "addr:full": null, "addr:city": null, "source": null, "osm_id": 11926018065, "osm_type": "nodes" }, "geometry": { "type": "Point", "coordinates": [ 3.3525172, 6.5343546 ] } },
{ "type": "Feature", "properties": { "name": "Merit Medical Centre Ojuwoyw", "name:en": null, "amenity": "hospital", "building": null, "healthcare": null, "healthcare:speciality": null, "operator:type": null, "capacity:persons": null, "addr:full": null, "addr:city": null, "source": null, "osm_id": 11926018066, "osm_type": "nodes" }, "geometry": { "type": "Point", "coordinates": [ 3.3527331, 6.532827 ] } },
{ "type": "Feature", "properties": { "name": "Ayatuga Health Care", "name:en": null, "amenity": "hospital", "building": null, "healthcare": null, "healthcare:speciality": null, "operator:type": null, "capacity:persons": null, "addr:full": null, "addr:city": null, "source": null, "osm_id": 11926018067, "osm_type": "nodes" }, "geometry": { "type": "Point", "coordinates": [ 3.3540541, 6.5331068 ] } },
{ "type": "Feature", "properties": { "name": "Ayantuga Primary Health Centre", "name:en": null, "amenity": "hospital", "building": null, "healthcare": null, "healthcare:speciality": null, "operator:type": null, "capacity:persons": null, "addr:full": null, "addr:city": null, "source": null, "osm_id": 11926018068, "osm_type": "nodes" }, "geometry": { "type": "Point", "coordinates": [ 3.3552021, 6.5331175 ] } },
{ "type": "Feature", "properties": { "name": "Kayode Health Center Onipanu", "name:en": null, "amenity": "hospital", "building": null, "healthcare": null, "healthcare:speciality": null, "operator:type": null, "capacity:persons": null, "addr:full": null, "addr:city": null, "source": null, "osm_id": 11926103969, "osm_type": "nodes" }, "geometry": { "type": "Point", "coordinates": [ 3.3646367, 6.5326059 ] } },
{ "type": "Feature", "properties": { "name": "Redeemtion Medical Clinic", "name:en": null, "amenity": "hospital", "building": null, "healthcare": null, "healthcare:speciality": null, "operator:type": null, "capacity:persons": null, "addr:full": null, "addr:city": null, "source": null, "osm_id": 11926103971, "osm_type": "nodes" }, "geometry": { "type": "Point", "coordinates": [ 3.3585763, 6.5288085 ] } },
{ "type": "Feature", "properties": { "name": "Continental Hospital And Maternity Home", "name:en": null, "amenity": "hospital", "building": null, "healthcare": null, "healthcare:speciality": null, "operator:type": null, "capacity:persons": null, "addr:full": null, "addr:city": null, "source": null, "osm_id": 11926103972, "osm_type": "nodes" }, "geometry": { "type": "Point", "coordinates": [ 3.3587185, 6.5281423 ] } },
{ "type": "Feature", "properties": { "name": "Jag-Bon Medical Center", "name:en": null, "amenity": "hospital", "building": null, "healthcare": null, "healthcare:speciality": null, "operator:type": null, "capacity:persons": null, "addr:full": null, "addr:city": null, "source": null, "osm_id": 11926103974, "osm_type": "nodes" }, "geometry": { "type": "Point", "coordinates": [ 3.367095, 6.520313 ] } },
{ "type": "Feature", "properties": { "name": "Bm Hospital", "name:en": null, "amenity": "hospital", "building": null, "healthcare": null, "healthcare:speciality": null, "operator:type": null, "capacity:persons": null, "addr:full": null, "addr:city": null, "source": null, "osm_id": 11926103975, "osm_type": "nodes" }, "geometry": { "type": "Point", "coordinates": [ 3.3648741, 6.5211258 ] } },
{ "type": "Feature", "properties": { "name": "Best Hospital", "name:en": null, "amenity": "hospital", "building": null, "healthcare": null, "healthcare:speciality": null, "operator:type": null, "capacity:persons": null, "addr:full": null, "addr:city": null, "source": null, "osm_id": 11925925647, "osm_type": "nodes" }, "geometry": { "type": "Point", "coordinates": [ 3.3442194, 6.5284098 ] } },
{ "type": "Feature", "properties": { "name": "Femtab Hosp", "name:en": null, "amenity": "hospital", "building": null, "healthcare": null, "healthcare:speciality": null, "operator:type": null, "capacity:persons": null, "addr:full": null, "addr:city": null, "source": null, "osm_id": 11925925645, "osm_type": "nodes" }, "geometry": { "type": "Point", "coordinates": [ 3.3427982, 6.530542 ] } },
{ "type": "Feature", "properties": { "name": "Divine Nursing Home", "name:en": null, "amenity": "hospital", "building": null, "healthcare": null, "healthcare:speciality": null, "operator:type": null, "capacity:persons": null, "addr:full": null, "addr:city": null, "source": null, "osm_id": 11925925646, "osm_type": "nodes" }, "geometry": { "type": "Point", "coordinates": [ 3.3443009, 6.5289311 ] } },
{ "type": "Feature", "properties": { "name": "Hammed Conwale Hospital", "name:en": null, "amenity": "hospital", "building": null, "healthcare": null, "healthcare:speciality": null, "operator:type": null, "capacity:persons": null, "addr:full": null, "addr:city": null, "source": null, "osm_id": 11925925648, "osm_type": "nodes" }, "geometry": { "type": "Point", "coordinates": [ 3.3444853, 6.5278279 ] } },
{ "type": "Feature", "properties": { "name": "Alafiatayo Hospital", "name:en": null, "amenity": "hospital", "building": null, "healthcare": null, "healthcare:speciality": null, "operator:type": null, "capacity:persons": null, "addr:full": null, "addr:city": null, "source": null, "osm_id": 11925925649, "osm_type": "nodes" }, "geometry": { "type": "Point", "coordinates": [ 3.3463696, 6.5275561 ] } },
{ "type": "Feature", "properties": { "name": "Ajoke Clinic", "name:en": null, "amenity": "hospital", "building": null, "healthcare": null, "healthcare:speciality": null, "operator:type": null, "capacity:persons": null, "addr:full": null, "addr:city": null, "source": null, "osm_id": 11925925657, "osm_type": "nodes" }, "geometry": { "type": "Point", "coordinates": [ 3.3457218, 6.5217154 ] } },
{ "type": "Feature", "properties": { "name": "Odus Specialist Clinic", "name:en": null, "amenity": "hospital", "building": null, "healthcare": null, "healthcare:speciality": null, "operator:type": null, "capacity:persons": null, "addr:full": null, "addr:city": null, "source": null, "osm_id": 11925925661, "osm_type": "nodes" }, "geometry": { "type": "Point", "coordinates": [ 3.3452511, 6.5208353 ] } },
{ "type": "Feature", "properties": { "name": "St Claire Specialist Clinic", "name:en": null, "amenity": "hospital", "building": null, "healthcare": null, "healthcare:speciality": null, "operator:type": null, "capacity:persons": null, "addr:full": null, "addr:city": null, "source": null, "osm_id": 11925925662, "osm_type": "nodes" }, "geometry": { "type": "Point", "coordinates": [ 3.3596589, 6.5157248 ] } },
{ "type": "Feature", "properties": { "name": "VNusamin Clinic", "name:en": null, "amenity": "hospital", "building": null, "healthcare": null, "healthcare:speciality": null, "operator:type": null, "capacity:persons": null, "addr:full": null, "addr:city": null, "source": null, "osm_id": 11925925663, "osm_type": "nodes" }, "geometry": { "type": "Point", "coordinates": [ 3.3602279, 6.5153217 ] } },
{ "type": "Feature", "properties": { "name": "Risaaj Hospital And Medicure", "name:en": null, "amenity": "hospital", "building": null, "healthcare": null, "healthcare:speciality": null, "operator:type": null, "capacity:persons": null, "addr:full": null, "addr:city": null, "source": null, "osm_id": 11925928169, "osm_type": "nodes" }, "geometry": { "type": "Point", "coordinates": [ 3.3441272, 6.5162677 ] } },
{ "type": "Feature", "properties": { "name": "Divine Nursin Hme", "name:en": null, "amenity": "hospital", "building": null, "healthcare": null, "healthcare:speciality": null, "operator:type": null, "capacity:persons": null, "addr:full": null, "addr:city": null, "source": null, "osm_id": 11925914566, "osm_type": "nodes" }, "geometry": { "type": "Point", "coordinates": [ 3.3417106, 6.5265321 ] } },
{ "type": "Feature", "properties": { "name": "Good Hope Hospital", "name:en": null, "amenity": "hospital", "building": null, "healthcare": null, "healthcare:speciality": null, "operator:type": null, "capacity:persons": null, "addr:full": null, "addr:city": null, "source": null, "osm_id": 11925914567, "osm_type": "nodes" }, "geometry": { "type": "Point", "coordinates": [ 3.3411077, 6.524273 ] } },
{ "type": "Feature", "properties": { "name": "Salvation Hospital", "name:en": null, "amenity": "hospital", "building": null, "healthcare": null, "healthcare:speciality": null, "operator:type": null, "capacity:persons": null, "addr:full": null, "addr:city": null, "source": null, "osm_id": 11925914568, "osm_type": "nodes" }, "geometry": { "type": "Point", "coordinates": [ 3.3394776, 6.5244768 ] } },
{ "type": "Feature", "properties": { "name": "Phonex Clinic", "name:en": null, "amenity": "hospital", "building": null, "healthcare": null, "healthcare:speciality": null, "operator:type": null, "capacity:persons": null, "addr:full": null, "addr:city": null, "source": null, "osm_id": 11925959169, "osm_type": "nodes" }, "geometry": { "type": "Point", "coordinates": [ 3.3391839, 6.5240558 ] } },
{ "type": "Feature", "properties": { "name": "Mary Anne Hospital", "name:en": null, "amenity": "hospital", "building": null, "healthcare": null, "healthcare:speciality": null, "operator:type": null, "capacity:persons": null, "addr:full": null, "addr:city": null, "source": null, "osm_id": 11925959170, "osm_type": "nodes" }, "geometry": { "type": "Point", "coordinates": [ 3.3392731, 6.5211465 ] } },
{ "type": "Feature", "properties": { "name": "Ilasa Health Centre", "name:en": null, "amenity": "hospital", "building": null, "healthcare": null, "healthcare:speciality": null, "operator:type": null, "capacity:persons": null, "addr:full": null, "addr:city": null, "source": null, "osm_id": 11925959171, "osm_type": "nodes" }, "geometry": { "type": "Point", "coordinates": [ 3.337537, 6.5201438 ] } },
{ "type": "Feature", "properties": { "name": "Bethlem Hospital", "name:en": null, "amenity": "hospital", "building": null, "healthcare": null, "healthcare:speciality": null, "operator:type": null, "capacity:persons": null, "addr:full": null, "addr:city": null, "source": null, "osm_id": 11925959172, "osm_type": "nodes" }, "geometry": { "type": "Point", "coordinates": [ 3.3391947, 6.5180852 ] } },
{ "type": "Feature", "properties": { "name": "Zephaniah Maternity Center", "name:en": null, "amenity": "hospital", "building": null, "healthcare": null, "healthcare:speciality": null, "operator:type": null, "capacity:persons": null, "addr:full": null, "addr:city": null, "source": null, "osm_id": 11925959173, "osm_type": "nodes" }, "geometry": { "type": "Point", "coordinates": [ 3.3335714, 6.5120852 ] } },
{ "type": "Feature", "properties": { "name": "Dans Medical Hospital", "name:en": null, "amenity": "hospital", "building": null, "healthcare": null, "healthcare:speciality": null, "operator:type": null, "capacity:persons": null, "addr:full": null, "addr:city": null, "source": null, "osm_id": 11925959174, "osm_type": "nodes" }, "geometry": { "type": "Point", "coordinates": [ 3.3347318, 6.5124986 ] } },
{ "type": "Feature", "properties": { "name": "Able God Hospital", "name:en": null, "amenity": "hospital", "building": null, "healthcare": null, "healthcare:speciality": null, "operator:type": null, "capacity:persons": null, "addr:full": null, "addr:city": null, "source": null, "osm_id": 11925959176, "osm_type": "nodes" }, "geometry": { "type": "Point", "coordinates": [ 3.3352411, 6.5080359 ] } },
{ "type": "Feature", "properties": { "name": "St Femos Conual Home", "name:en": null, "amenity": "hospital", "building": null, "healthcare": null, "healthcare:speciality": null, "operator:type": null, "capacity:persons": null, "addr:full": null, "addr:city": null, "source": null, "osm_id": 11925959177, "osm_type": "nodes" }, "geometry": { "type": "Point", "coordinates": [ 3.3294193, 6.5090219 ] } },
{ "type": "Feature", "properties": { "name": "Crusaints Hospital", "name:en": null, "amenity": "hospital", "building": null, "healthcare": null, "healthcare:speciality": null, "operator:type": null, "capacity:persons": null, "addr:full": null, "addr:city": null, "source": null, "osm_id": 11925999039, "osm_type": "nodes" }, "geometry": { "type": "Point", "coordinates": [ 3.359904, 6.5425148 ] } },
{ "type": "Feature", "properties": { "name": "Mary Anne Med Clinic", "name:en": null, "amenity": "hospital", "building": null, "healthcare": null, "healthcare:speciality": null, "operator:type": null, "capacity:persons": null, "addr:full": null, "addr:city": null, "source": null, "osm_id": 11925999045, "osm_type": "nodes" }, "geometry": { "type": "Point", "coordinates": [ 3.3597913, 6.5488155 ] } },
{ "type": "Feature", "properties": { "name": "Ufoma Specialist Hospital", "name:en": null, "amenity": "hospital", "building": null, "healthcare": null, "healthcare:speciality": null, "operator:type": null, "capacity:persons": null, "addr:full": null, "addr:city": null, "source": null, "osm_id": 11925999046, "osm_type": "nodes" }, "geometry": { "type": "Point", "coordinates": [ 3.3603492, 6.5506195 ] } },
{ "type": "Feature", "properties": { "name": "Rosanna Clinic", "name:en": null, "amenity": "hospital", "building": null, "healthcare": null, "healthcare:speciality": null, "operator:type": null, "capacity:persons": null, "addr:full": null, "addr:city": null, "source": null, "osm_id": 11925999049, "osm_type": "nodes" }, "geometry": { "type": "Point", "coordinates": [ 3.3621597, 6.5567563 ] } },
{ "type": "Feature", "properties": { "name": "D2 Staff Clinic", "name:en": null, "amenity": "hospital", "building": null, "healthcare": null, "healthcare:speciality": null, "operator:type": null, "capacity:persons": null, "addr:full": null, "addr:city": null, "source": null, "osm_id": 11925999050, "osm_type": "nodes" }, "geometry": { "type": "Point", "coordinates": [ 3.356165, 6.5561301 ] } },
{ "type": "Feature", "properties": { "name": "Federal Neuro Psychatric Hospital Oshodi", "name:en": null, "amenity": "hospital", "building": null, "healthcare": null, "healthcare:speciality": null, "operator:type": null, "capacity:persons": null, "addr:full": null, "addr:city": null, "source": null, "osm_id": 11925999054, "osm_type": "nodes" }, "geometry": { "type": "Point", "coordinates": [ 3.3486508, 6.5482866 ] } },
{ "type": "Feature", "properties": { "name": "Ladipo", "name:en": null, "amenity": "hospital", "building": null, "healthcare": null, "healthcare:speciality": null, "operator:type": null, "capacity:persons": null, "addr:full": null, "addr:city": null, "source": null, "osm_id": 11925999055, "osm_type": "nodes" }, "geometry": { "type": "Point", "coordinates": [ 3.3449507, 6.5477523 ] } },
{ "type": "Feature", "properties": { "name": "Crusaints Hospital", "name:en": null, "amenity": "hospital", "building": null, "healthcare": null, "healthcare:speciality": null, "operator:type": null, "capacity:persons": null, "addr:full": null, "addr:city": null, "source": null, "osm_id": 11925030440, "osm_type": "nodes" }, "geometry": { "type": "Point", "coordinates": [ 3.2525982, 6.510892 ] } },
{ "type": "Feature", "properties": { "name": "Olatemi Maternity Home", "name:en": null, "amenity": "hospital", "building": null, "healthcare": null, "healthcare:speciality": null, "operator:type": null, "capacity:persons": null, "addr:full": null, "addr:city": null, "source": null, "osm_id": 11925030442, "osm_type": "nodes" }, "geometry": { "type": "Point", "coordinates": [ 3.2521798, 6.5139999 ] } },
{ "type": "Feature", "properties": { "name": "Datam Conv Health Care Center", "name:en": null, "amenity": "hospital", "building": null, "healthcare": null, "healthcare:speciality": null, "operator:type": null, "capacity:persons": null, "addr:full": null, "addr:city": null, "source": null, "osm_id": 11925030443, "osm_type": "nodes" }, "geometry": { "type": "Point", "coordinates": [ 3.2506241, 6.5225555 ] } },
{ "type": "Feature", "properties": { "name": "Maciland Medical Center", "name:en": null, "amenity": "hospital", "building": null, "healthcare": null, "healthcare:speciality": null, "operator:type": null, "capacity:persons": null, "addr:full": null, "addr:city": null, "source": null, "osm_id": 11925030444, "osm_type": "nodes" }, "geometry": { "type": "Point", "coordinates": [ 3.2491449, 6.5240758 ] } },
{ "type": "Feature", "properties": { "name": "Egan Primary Health Care Center", "name:en": null, "amenity": "hospital", "building": null, "healthcare": null, "healthcare:speciality": null, "operator:type": null, "capacity:persons": null, "addr:full": null, "addr:city": null, "source": null, "osm_id": 11925076788, "osm_type": "nodes" }, "geometry": { "type": "Point", "coordinates": [ 3.2359591, 6.5503741 ] } },
{ "type": "Feature", "properties": { "name": "Santa Maria Hospital", "name:en": null, "amenity": "hospital", "building": null, "healthcare": null, "healthcare:speciality": null, "operator:type": null, "capacity:persons": null, "addr:full": null, "addr:city": null, "source": null, "osm_id": 11925076789, "osm_type": "nodes" }, "geometry": { "type": "Point", "coordinates": [ 3.2315496, 6.5487316 ] } },
{ "type": "Feature", "properties": { "name": "Marie Stopes Clinic General Medical Care And Laboratory", "name:en": null, "amenity": "hospital", "building": null, "healthcare": null, "healthcare:speciality": null, "operator:type": null, "capacity:persons": null, "addr:full": null, "addr:city": null, "source": null, "osm_id": 11925076790, "osm_type": "nodes" }, "geometry": { "type": "Point", "coordinates": [ 3.2236565, 6.5405003 ] } },
{ "type": "Feature", "properties": { "name": "Eldunamis Medical Center", "name:en": null, "amenity": "hospital", "building": null, "healthcare": null, "healthcare:speciality": null, "operator:type": null, "capacity:persons": null, "addr:full": null, "addr:city": null, "source": null, "osm_id": 11925076791, "osm_type": "nodes" }, "geometry": { "type": "Point", "coordinates": [ 3.2243002, 6.5423682 ] } },
{ "type": "Feature", "properties": { "name": "Bukz Clinical Diagnostic Center", "name:en": null, "amenity": "hospital", "building": null, "healthcare": null, "healthcare:speciality": null, "operator:type": null, "capacity:persons": null, "addr:full": null, "addr:city": null, "source": null, "osm_id": 11925076792, "osm_type": "nodes" }, "geometry": { "type": "Point", "coordinates": [ 3.2283443, 6.541796 ] } },